time_s,sport_x,sport_y,sport_z,sport_roll,sport_pitch,sport_yaw,sport_vx,sport_vy,sport_vz,sport_yaw_speed,body_height,mode,gait_type,error_code,odom_x,odom_y,odom_z,odom_roll,odom_pitch,odom_yaw,odom_vx,odom_vy,odom_vz,odom_wx,odom_wy,odom_wz
1779593156.466176,-0.122596,-0.009854,0.312159,-0.015677,0.010943,0.526757,-0.004146,-0.000727,-0.024140,0.005326,0.320782,0,0,100,-0.122596,-0.009854,0.312159,-0.015677,0.010943,0.526757,-0.004146,-0.000727,-0.024140,-0.010653,-0.001065,0.005326
1779593156.470170,-0.122593,-0.009854,0.312158,-0.015671,0.010928,0.526798,0.005747,0.005648,-0.024158,0.017044,0.320784,0,0,100,-0.122596,-0.009854,0.312159,-0.015677,0.010943,0.526757,-0.004146,-0.000727,-0.024140,-0.010653,-0.001065,0.005326
1779593156.472162,-0.122601,-0.009859,0.312160,-0.015672,0.010909,0.526807,0.001010,-0.000799,-0.024197,0.001065,0.320786,0,0,100,-0.122596,-0.009854,0.312159,-0.015677,0.010943,0.526757,-0.004146,-0.000727,-0.024140,-0.010653,-0.001065,0.005326
1779593156.476261,-0.122605,-0.009852,0.312162,-0.015679,0.010915,0.526821,-0.000125,0.011314,-0.023909,0.012783,0.320782,0,0,100,-0.122601,-0.009859,0.312160,-0.015672,0.010909,0.526808,0.001010,-0.000799,-0.024197,-0.005326,-0.012783,0.001065
1779593156.480229,-0.122609,-0.009853,0.312165,-0.015675,0.010892,0.526815,0.009095,0.003282,-0.023964,0.004261,0.320782,0,0,100,-0.122609,-0.009853,0.312165,-0.015675,0.010892,0.526815,0.009095,0.003282,-0.023964,0.006392,-0.011718,0.004261
1779593156.482232,-0.122611,-0.009857,0.312167,-0.015680,0.010886,0.526800,0.005192,-0.000985,-0.023998,-0.005326,0.320782,0,0,100,-0.122609,-0.009853,0.312165,-0.015675,0.010892,0.526815,0.009095,0.003282,-0.023964,0.006392,-0.011718,0.004261
1779593156.486318,-0.122600,-0.009860,0.312165,-0.015661,0.010896,0.526796,0.008357,-0.007096,-0.024148,0.001065,0.320784,0,0,100,-0.122600,-0.009860,0.312165,-0.015661,0.010896,0.526796,0.008357,-0.007096,-0.024148,-0.006392,0.004261,0.001065
1779593156.490317,-0.122605,-0.009854,0.312161,-0.015655,0.010895,0.526770,0.001806,0.014652,-0.024115,-0.007457,0.320778,0,0,100,-0.122600,-0.009860,0.312165,-0.015661,0.010896,0.526796,0.008357,-0.007096,-0.024148,-0.006392,0.004261,0.001065
1779593156.492347,-0.122607,-0.009860,0.312160,-0.015651,0.010889,0.526754,-0.005082,0.008748,-0.024370,-0.017044,0.320777,0,0,100,-0.122600,-0.009860,0.312165,-0.015661,0.010896,0.526796,0.008357,-0.007096,-0.024148,-0.006392,0.004261,0.001065
1779593156.496306,-0.122602,-0.009861,0.312161,-0.015662,0.010882,0.526720,-0.001819,-0.000784,-0.024536,-0.018109,0.320786,0,0,100,-0.122607,-0.009860,0.312160,-0.015651,0.010889,0.526754,-0.005082,0.008748,-0.024370,0.000000,-0.012783,-0.017044
1779593156.500277,-0.122609,-0.009856,0.312160,-0.015677,0.010882,0.526688,-0.004920,0.002717,-0.024507,-0.008522,0.320779,0,0,100,-0.122607,-0.009860,0.312160,-0.015651,0.010889,0.526754,-0.005082,0.008748,-0.024370,0.000000,-0.012783,-0.017044
1779593156.502269,-0.122602,-0.009855,0.312158,-0.015679,0.010879,0.526661,0.006512,0.001811,-0.024505,-0.015979,0.320784,0,0,100,-0.122609,-0.009856,0.312160,-0.015677,0.010882,0.526688,-0.004920,0.002717,-0.024507,-0.017044,-0.003196,-0.008522
1779593156.506269,-0.122587,-0.009849,0.312156,-0.015691,0.010914,0.526625,0.006856,0.001198,-0.024703,-0.007457,0.320788,0,0,100,-0.122609,-0.009856,0.312160,-0.015677,0.010882,0.526688,-0.004920,0.002717,-0.024507,-0.017044,-0.003196,-0.008522
1779593156.510262,-0.122583,-0.009847,0.312155,-0.015713,0.010922,0.526584,-0.005930,-0.006641,-0.024839,-0.005326,0.320790,0,0,100,-0.122587,-0.009849,0.312156,-0.015691,0.010914,0.526625,0.006856,0.001198,-0.024703,-0.008522,0.000000,-0.007457
1779593156.512256,-0.122587,-0.009859,0.312154,-0.015686,0.010894,0.526568,-0.013067,-0.003226,-0.024780,-0.006392,0.320784,0,0,100,-0.122587,-0.009849,0.312156,-0.015691,0.010914,0.526625,0.006856,0.001198,-0.024703,-0.008522,0.000000,-0.007457
1779593156.516251,-0.122584,-0.009859,0.312154,-0.015679,0.010898,0.526524,-0.005368,0.000279,-0.024420,-0.008522,0.320784,0,0,100,-0.122587,-0.009859,0.312154,-0.015686,0.010894,0.526568,-0.013067,-0.003226,-0.024780,-0.003196,-0.002131,-0.006392
1779593156.520294,-0.122580,-0.009861,0.312158,-0.015671,0.010891,0.526507,0.007455,0.006851,-0.023795,0.015979,0.320781,0,0,100,-0.122580,-0.009861,0.312158,-0.015671,0.010891,0.526507,0.007455,0.006851,-0.023795,-0.010653,-0.005326,0.015979
1779593156.522328,-0.122582,-0.009861,0.312156,-0.015679,0.010898,0.526501,-0.003814,0.000819,-0.024053,-0.002131,0.320784,0,0,100,-0.122580,-0.009861,0.312158,-0.015671,0.010891,0.526507,0.007455,0.006851,-0.023795,-0.010653,-0.005326,0.015979
1779593156.526298,-0.122585,-0.009865,0.312159,-0.015683,0.010891,0.526500,-0.005740,-0.004525,-0.023975,0.002131,0.320784,0,0,100,-0.122580,-0.009861,0.312158,-0.015671,0.010891,0.526507,0.007455,0.006851,-0.023795,-0.010653,-0.005326,0.015979
1779593156.530247,-0.122593,-0.009859,0.312159,-0.015705,0.010870,0.526522,-0.001996,0.002470,-0.023742,0.001065,0.320784,0,0,100,-0.122585,-0.009865,0.312159,-0.015683,0.010891,0.526501,-0.005740,-0.004525,-0.023975,-0.003196,-0.007457,0.002131
1779593156.532242,-0.122599,-0.009861,0.312161,-0.015717,0.010854,0.526531,-0.003829,0.002680,-0.023709,0.002131,0.320786,0,0,100,-0.122585,-0.009865,0.312159,-0.015683,0.010891,0.526501,-0.005740,-0.004525,-0.023975,-0.003196,-0.007457,0.002131
1779593156.536249,-0.122597,-0.009864,0.312164,-0.015713,0.010852,0.526540,-0.004648,-0.006144,-0.023822,0.009587,0.320784,0,0,100,-0.122599,-0.009861,0.312161,-0.015717,0.010854,0.526531,-0.003829,0.002680,-0.023709,-0.012783,-0.012783,0.002131
1779593156.540291,-0.122600,-0.009868,0.312167,-0.015702,0.010838,0.526575,-0.000014,0.001061,-0.023690,0.012783,0.320786,0,0,100,-0.122599,-0.009861,0.312161,-0.015717,0.010854,0.526531,-0.003829,0.002680,-0.023709,-0.012783,-0.012783,0.002131
1779593156.542327,-0.122602,-0.009868,0.312166,-0.015699,0.010847,0.526598,-0.004539,0.003928,-0.023756,0.011718,0.320786,0,0,100,-0.122600,-0.009868,0.312167,-0.015702,0.010838,0.526575,-0.000014,0.001061,-0.023690,-0.014914,-0.004261,0.012783
1779593156.546354,-0.122601,-0.009881,0.312165,-0.015680,0.010837,0.526652,-0.005875,-0.013279,-0.024160,0.023436,0.320786,0,0,100,-0.122600,-0.009868,0.312167,-0.015702,0.010838,0.526575,-0.000014,0.001061,-0.023690,-0.014914,-0.004261,0.012783
1779593156.550247,-0.122598,-0.009867,0.312163,-0.015688,0.010855,0.526720,-0.001081,-0.007349,-0.024322,0.022371,0.320786,0,0,100,-0.122601,-0.009881,0.312165,-0.015680,0.010837,0.526653,-0.005875,-0.013279,-0.024160,-0.004261,0.010653,0.023436
1779593156.552250,-0.122600,-0.009868,0.312162,-0.015677,0.010863,0.526735,-0.008311,-0.004694,-0.024459,0.006392,0.320784,0,0,100,-0.122601,-0.009881,0.312165,-0.015680,0.010837,0.526653,-0.005875,-0.013279,-0.024160,-0.004261,0.010653,0.023436
1779593156.556251,-0.122600,-0.009862,0.312164,-0.015662,0.010866,0.526764,-0.005593,0.004448,-0.024364,0.012783,0.320782,0,0,100,-0.122600,-0.009868,0.312162,-0.015677,0.010863,0.526736,-0.008311,-0.004694,-0.024459,-0.009587,-0.007457,0.006392
1779593156.560226,-0.122589,-0.009858,0.312161,-0.015654,0.010889,0.526816,0.002530,0.001990,-0.024384,0.011718,0.320784,0,0,100,-0.122600,-0.009868,0.312162,-0.015677,0.010863,0.526736,-0.008311,-0.004694,-0.024459,-0.009587,-0.007457,0.006392
1779593156.562278,-0.122584,-0.009860,0.312162,-0.015649,0.010899,0.526827,0.001954,0.002555,-0.024431,0.006392,0.320784,0,0,100,-0.122589,-0.009858,0.312161,-0.015654,0.010889,0.526816,0.002530,0.001990,-0.024384,-0.012783,-0.005326,0.011718
1779593156.566230,-0.122595,-0.009848,0.312162,-0.015679,0.010894,0.526847,0.001386,0.005072,-0.024370,0.004261,0.320784,0,0,100,-0.122589,-0.009858,0.312161,-0.015654,0.010889,0.526816,0.002530,0.001990,-0.024384,-0.012783,-0.005326,0.011718
1779593156.570265,-0.122592,-0.009839,0.312163,-0.015690,0.010915,0.526861,0.011328,0.005091,-0.024217,0.005326,0.320782,0,0,100,-0.122595,-0.009848,0.312162,-0.015679,0.010894,0.526847,0.001386,0.005072,-0.024370,-0.015979,-0.013848,0.004261
1779593156.572297,-0.122600,-0.009847,0.312164,-0.015681,0.010902,0.526872,-0.005266,-0.002359,-0.024370,0.009587,0.320788,0,0,100,-0.122600,-0.009847,0.312164,-0.015681,0.010902,0.526872,-0.005266,-0.002359,-0.024370,-0.010653,-0.011718,0.009587
1779593156.576267,-0.122593,-0.009854,0.312165,-0.015647,0.010916,0.526868,-0.005634,-0.005885,-0.024309,-0.005326,0.320786,0,0,100,-0.122600,-0.009847,0.312164,-0.015681,0.010902,0.526872,-0.005266,-0.002359,-0.024370,-0.010653,-0.011718,0.009587
1779593156.580222,-0.122583,-0.009854,0.312166,-0.015643,0.010926,0.526846,0.000611,-0.004435,-0.024213,-0.006392,0.320788,0,0,100,-0.122600,-0.009847,0.312164,-0.015681,0.010902,0.526872,-0.005266,-0.002359,-0.024370,-0.010653,-0.011718,0.009587
1779593156.582220,-0.122580,-0.009847,0.312165,-0.015651,0.010948,0.526852,0.000385,-0.002024,-0.024209,0.011718,0.320784,0,0,100,-0.122583,-0.009854,0.312166,-0.015643,0.010926,0.526846,0.000611,-0.004435,-0.024213,-0.005326,-0.004261,-0.006392
1779593156.586222,-0.122584,-0.009847,0.312161,-0.015655,0.010937,0.526826,-0.003676,0.005589,-0.024284,-0.004261,0.320782,0,0,100,-0.122583,-0.009854,0.312166,-0.015643,0.010926,0.526846,0.000611,-0.004435,-0.024213,-0.005326,-0.004261,-0.006392
1779593156.590293,-0.122569,-0.009851,0.312161,-0.015648,0.010927,0.526807,0.005642,-0.002865,-0.024316,-0.002131,0.320784,0,0,100,-0.122584,-0.009847,0.312161,-0.015655,0.010937,0.526826,-0.003676,0.005589,-0.024284,-0.011718,-0.005326,-0.004261
1779593156.592503,-0.122573,-0.009844,0.312161,-0.015661,0.010923,0.526777,0.012109,0.004296,-0.024259,-0.017044,0.320784,0,0,100,-0.122584,-0.009847,0.312161,-0.015655,0.010937,0.526826,-0.003676,0.005589,-0.024284,-0.011718,-0.005326,-0.004261
1779593156.596477,-0.122568,-0.009836,0.312158,-0.015684,0.010959,0.526717,0.006032,0.006854,-0.024505,-0.013848,0.320784,0,0,100,-0.122573,-0.009844,0.312161,-0.015661,0.010923,0.526777,0.012109,0.004296,-0.024259,-0.012783,0.002131,-0.017044
1779593156.600252,-0.122569,-0.009850,0.312157,-0.015653,0.010938,0.526675,-0.001064,-0.009269,-0.024849,-0.015979,0.320784,0,0,100,-0.122573,-0.009844,0.312161,-0.015661,0.010923,0.526777,0.012109,0.004296,-0.024259,-0.012783,0.002131,-0.017044
1779593156.602265,-0.122571,-0.009856,0.312158,-0.015643,0.010944,0.526663,-0.011678,-0.001264,-0.024748,-0.005326,0.320786,0,0,100,-0.122569,-0.009850,0.312157,-0.015653,0.010938,0.526675,-0.001064,-0.009269,-0.024849,0.012783,0.001065,-0.015979
1779593156.606253,-0.122560,-0.009846,0.312158,-0.015640,0.010954,0.526635,0.006724,0.006833,-0.024308,-0.003196,0.320782,0,0,100,-0.122569,-0.009850,0.312157,-0.015653,0.010938,0.526675,-0.001064,-0.009269,-0.024849,0.012783,0.001065,-0.015979
1779593156.610290,-0.122552,-0.009852,0.312160,-0.015629,0.010963,0.526590,0.006041,0.000694,-0.024241,-0.004261,0.320786,0,0,100,-0.122560,-0.009846,0.312158,-0.015640,0.010954,0.526636,0.006724,0.006833,-0.024308,-0.002131,-0.006392,-0.003196
1779593156.612323,-0.122559,-0.009858,0.312159,-0.015636,0.010955,0.526566,0.002247,-0.005845,-0.024260,-0.018109,0.320784,0,0,100,-0.122559,-0.009858,0.312159,-0.015636,0.010955,0.526566,0.002247,-0.005845,-0.024260,-0.012783,-0.007457,-0.018109
1779593156.616318,-0.122552,-0.009857,0.312155,-0.015629,0.010972,0.526537,-0.005613,-0.002727,-0.024216,-0.008522,0.320779,0,0,100,-0.122559,-0.009858,0.312159,-0.015636,0.010955,0.526566,0.002247,-0.005845,-0.024260,-0.012783,-0.007457,-0.018109
1779593156.620248,-0.122550,-0.009844,0.312155,-0.015647,0.010993,0.526545,0.003164,0.005399,-0.023856,-0.002131,0.320784,0,0,100,-0.122559,-0.009858,0.312159,-0.015636,0.010955,0.526566,0.002247,-0.005845,-0.024260,-0.012783,-0.007457,-0.018109
1779593156.622246,-0.122551,-0.009843,0.312156,-0.015663,0.011000,0.526552,-0.002452,0.006390,-0.023844,0.003196,0.320784,0,0,100,-0.122550,-0.009844,0.312155,-0.015647,0.010993,0.526545,0.003164,0.005399,-0.023856,-0.015979,0.000000,-0.002131
1779593156.626251,-0.122557,-0.009837,0.312158,-0.015704,0.011009,0.526575,-0.004346,-0.006631,-0.023978,0.001065,0.320784,0,0,100,-0.122550,-0.009844,0.312155,-0.015647,0.010993,0.526545,0.003164,0.005399,-0.023856,-0.015979,0.000000,-0.002131
1779593156.630377,-0.122564,-0.009839,0.312158,-0.015713,0.010985,0.526591,-0.000396,-0.000226,-0.023871,0.005326,0.320788,0,0,100,-0.122557,-0.009837,0.312158,-0.015704,0.011009,0.526575,-0.004346,-0.006631,-0.023978,-0.006392,-0.008522,0.001065
1779593156.632322,-0.122569,-0.009828,0.312158,-0.015729,0.010998,0.526592,-0.003932,0.004859,-0.023984,-0.010653,0.320784,0,0,100,-0.122557,-0.009837,0.312158,-0.015704,0.011009,0.526575,-0.004346,-0.006631,-0.023978,-0.006392,-0.008522,0.001065
1779593156.636272,-0.122567,-0.009825,0.312154,-0.015745,0.011018,0.526608,-0.006912,0.000901,-0.024434,0.004261,0.320784,0,0,100,-0.122569,-0.009828,0.312158,-0.015729,0.010998,0.526593,-0.003932,0.004859,-0.023984,-0.006392,-0.003196,-0.010653
1779593156.640270,-0.122572,-0.009824,0.312153,-0.015740,0.011001,0.526632,0.003702,0.003156,-0.024458,0.010653,0.320784,0,0,100,-0.122569,-0.009828,0.312158,-0.015729,0.010998,0.526593,-0.003932,0.004859,-0.023984,-0.006392,-0.003196,-0.010653
1779593156.642241,-0.122565,-0.009813,0.312151,-0.015740,0.011012,0.526637,0.011528,0.015205,-0.024253,0.000000,0.320779,0,0,100,-0.122572,-0.009824,0.312153,-0.015740,0.011001,0.526632,0.003702,0.003156,-0.024458,-0.006392,0.003196,0.010653
1779593156.646224,-0.122572,-0.009814,0.312150,-0.015743,0.011013,0.526673,0.004607,0.011974,-0.024454,0.010653,0.320784,0,0,100,-0.122572,-0.009824,0.312153,-0.015740,0.011001,0.526632,0.003702,0.003156,-0.024458,-0.006392,0.003196,0.010653
1779593156.650318,-0.122570,-0.009812,0.312151,-0.015773,0.011011,0.526720,0.011713,-0.003729,-0.024621,0.010653,0.320784,0,0,100,-0.122572,-0.009814,0.312150,-0.015743,0.011013,0.526673,0.004607,0.011974,-0.024454,-0.015979,0.001065,0.010653
1779593156.652331,-0.122575,-0.009813,0.312150,-0.015775,0.011016,0.526750,0.009314,-0.003068,-0.024584,0.009587,0.320788,0,0,100,-0.122572,-0.009814,0.312150,-0.015743,0.011013,0.526673,0.004607,0.011974,-0.024454,-0.015979,0.001065,0.010653
1779593156.656290,-0.122581,-0.009811,0.312149,-0.015782,0.011007,0.526785,-0.000073,-0.000568,-0.024543,0.009587,0.320786,0,0,100,-0.122575,-0.009813,0.312150,-0.015775,0.011016,0.526751,0.009314,-0.003068,-0.024584,-0.011718,-0.001065,0.009587
1779593156.660337,-0.122589,-0.009804,0.312147,-0.015804,0.011004,0.526829,-0.003249,-0.001182,-0.024472,0.006392,0.320786,0,0,100,-0.122575,-0.009813,0.312150,-0.015775,0.011016,0.526751,0.009314,-0.003068,-0.024584,-0.011718,-0.001065,0.009587
1779593156.662330,-0.122594,-0.009798,0.312147,-0.015811,0.011010,0.526838,-0.003377,0.009577,-0.024264,0.011718,0.320788,0,0,100,-0.122589,-0.009804,0.312147,-0.015804,0.011004,0.526829,-0.003249,-0.001182,-0.024472,-0.014914,-0.018109,0.006392
1779593156.666219,-0.122593,-0.009797,0.312150,-0.015822,0.011009,0.526852,0.001278,-0.000198,-0.024205,0.006392,0.320786,0,0,100,-0.122589,-0.009804,0.312147,-0.015804,0.011004,0.526829,-0.003249,-0.001182,-0.024472,-0.014914,-0.018109,0.006392
1779593156.670216,-0.122594,-0.009790,0.312150,-0.015828,0.011015,0.526862,-0.005511,0.005035,-0.024175,0.003196,0.320786,0,0,100,-0.122593,-0.009797,0.312150,-0.015822,0.011009,0.526852,0.001278,-0.000198,-0.024205,-0.012783,0.004261,0.006392
1779593156.672322,-0.122605,-0.009787,0.312148,-0.015842,0.011012,0.526860,-0.007436,0.004145,-0.024289,0.000000,0.320780,0,0,100,-0.122605,-0.009787,0.312148,-0.015842,0.011012,0.526860,-0.007436,0.004145,-0.024289,-0.013848,-0.006392,0.000000
1779593156.676290,-0.122593,-0.009797,0.312148,-0.015820,0.011010,0.526850,0.002817,-0.012186,-0.024429,0.003196,0.320782,0,0,100,-0.122605,-0.009787,0.312148,-0.015842,0.011012,0.526860,-0.007436,0.004145,-0.024289,-0.013848,-0.006392,0.000000
1779593156.680296,-0.122604,-0.009801,0.312146,-0.015808,0.010982,0.526819,-0.003311,0.006368,-0.024241,0.001065,0.320782,0,0,100,-0.122605,-0.009787,0.312148,-0.015842,0.011012,0.526860,-0.007436,0.004145,-0.024289,-0.013848,-0.006392,0.000000
1779593156.682251,-0.122606,-0.009801,0.312146,-0.015815,0.010975,0.526809,-0.003819,0.003938,-0.024341,-0.003196,0.320782,0,0,100,-0.122604,-0.009801,0.312146,-0.015808,0.010982,0.526819,-0.003311,0.006368,-0.024241,-0.006392,-0.003196,0.001065
1779593156.686250,-0.122597,-0.009791,0.312144,-0.015848,0.010997,0.526781,0.001124,-0.005965,-0.024591,-0.010653,0.320788,0,0,100,-0.122604,-0.009801,0.312146,-0.015808,0.010982,0.526819,-0.003311,0.006368,-0.024241,-0.006392,-0.003196,0.001065
1779593156.690248,-0.122596,-0.009789,0.312141,-0.015871,0.010993,0.526780,0.002223,-0.009224,-0.024765,-0.003196,0.320784,0,0,100,-0.122597,-0.009791,0.312144,-0.015848,0.010997,0.526781,0.001124,-0.005965,-0.024591,-0.013848,0.010653,-0.010653
1779593156.692303,-0.122604,-0.009784,0.312140,-0.015883,0.010985,0.526749,0.003424,-0.001756,-0.024610,-0.011718,0.320784,0,0,100,-0.122597,-0.009791,0.312144,-0.015848,0.010997,0.526781,0.001124,-0.005965,-0.024591,-0.013848,0.010653,-0.010653
1779593156.696331,-0.122601,-0.009778,0.312141,-0.015890,0.010981,0.526740,0.005281,0.003652,-0.024375,-0.003196,0.320784,0,0,100,-0.122604,-0.009784,0.312140,-0.015883,0.010985,0.526750,0.003424,-0.001756,-0.024610,-0.014914,-0.001065,-0.011718
1779593156.700350,-0.122598,-0.009786,0.312137,-0.015871,0.010981,0.526719,0.008183,-0.005865,-0.024559,-0.004261,0.320782,0,0,100,-0.122604,-0.009784,0.312140,-0.015883,0.010985,0.526750,0.003424,-0.001756,-0.024610,-0.014914,-0.001065,-0.011718
1779593156.704417,-0.122613,-0.009789,0.312135,-0.015879,0.010966,0.526714,-0.009869,-0.005404,-0.024638,-0.003196,0.320782,0,0,100,-0.122598,-0.009786,0.312137,-0.015871,0.010981,0.526719,0.008183,-0.005865,-0.024559,0.003196,0.008522,-0.004261
1779593156.706451,-0.122611,-0.009780,0.312137,-0.015887,0.010960,0.526704,0.005777,0.010347,-0.024038,-0.005326,0.320784,0,0,100,-0.122613,-0.009789,0.312135,-0.015879,0.010966,0.526714,-0.009869,-0.005404,-0.024638,0.001065,-0.010653,-0.003196
1779593156.710226,-0.122617,-0.009787,0.312140,-0.015903,0.010936,0.526684,-0.005384,0.002734,-0.023933,0.000000,0.320786,0,0,100,-0.122617,-0.009787,0.312140,-0.015903,0.010936,0.526684,-0.005384,0.002734,-0.023933,-0.014914,-0.022371,0.000000
1779593156.712225,-0.122613,-0.009782,0.312140,-0.015895,0.010943,0.526673,0.010285,0.004535,-0.023716,-0.003196,0.320780,0,0,100,-0.122617,-0.009787,0.312140,-0.015903,0.010936,0.526684,-0.005384,0.002734,-0.023933,-0.014914,-0.022371,0.000000
1779593156.716224,-0.122618,-0.009788,0.312136,-0.015911,0.010937,0.526671,-0.005730,-0.001520,-0.024205,-0.002131,0.320781,0,0,100,-0.122617,-0.009787,0.312140,-0.015903,0.010936,0.526684,-0.005384,0.002734,-0.023933,-0.014914,-0.022371,0.000000
1779593156.720220,-0.122614,-0.009779,0.312136,-0.015930,0.010966,0.526688,0.004160,0.000001,-0.024231,0.009587,0.320779,0,0,100,-0.122618,-0.009788,0.312136,-0.015911,0.010937,0.526672,-0.005730,-0.001520,-0.024205,-0.017044,-0.006392,-0.002131
1779593156.722291,-0.122615,-0.009780,0.312136,-0.015925,0.010950,0.526687,0.005290,0.002676,-0.024113,-0.006392,0.320782,0,0,100,-0.122615,-0.009780,0.312136,-0.015925,0.010950,0.526687,0.005290,0.002676,-0.024113,-0.003196,-0.013848,-0.006392
1779593156.726318,-0.122619,-0.009786,0.312135,-0.015927,0.010939,0.526689,-0.004049,-0.007595,-0.024339,0.001065,0.320782,0,0,100,-0.122615,-0.009780,0.312136,-0.015925,0.010950,0.526687,0.005290,0.002676,-0.024113,-0.003196,-0.013848,-0.006392
1779593156.730328,-0.122621,-0.009785,0.312139,-0.015922,0.010929,0.526710,0.003673,-0.001547,-0.023965,0.006392,0.320786,0,0,100,-0.122621,-0.009785,0.312139,-0.015922,0.010929,0.526710,0.003673,-0.001547,-0.023965,-0.009587,0.001065,0.006392
1779593156.732289,-0.122633,-0.009787,0.312140,-0.015926,0.010911,0.526735,0.003714,-0.001503,-0.023978,0.017044,0.320784,0,0,100,-0.122621,-0.009785,0.312139,-0.015922,0.010929,0.526710,0.003673,-0.001547,-0.023965,-0.009587,0.001065,0.006392
1779593156.736307,-0.122631,-0.009778,0.312142,-0.015922,0.010924,0.526777,0.004277,0.005631,-0.023910,0.017044,0.320786,0,0,100,-0.122631,-0.009778,0.312142,-0.015922,0.010924,0.526777,0.004277,0.005631,-0.023910,-0.003196,0.009587,0.017044
1779593156.740294,-0.122637,-0.009781,0.312142,-0.015916,0.010915,0.526806,-0.000929,0.010140,-0.024041,0.008522,0.320782,0,0,100,-0.122631,-0.009778,0.312142,-0.015922,0.010924,0.526777,0.004277,0.005631,-0.023910,-0.003196,0.009587,0.017044
1779593156.742247,-0.122639,-0.009774,0.312144,-0.015933,0.010916,0.526822,-0.001941,0.010114,-0.024100,0.009587,0.320784,0,0,100,-0.122639,-0.009774,0.312144,-0.015934,0.010916,0.526822,-0.001941,0.010114,-0.024100,-0.019175,-0.008522,0.009587
1779593156.744317,-0.122640,-0.009774,0.312142,-0.015941,0.010913,0.526834,-0.008657,0.008523,-0.024352,0.003196,0.320782,0,0,100,-0.122639,-0.009774,0.312144,-0.015934,0.010916,0.526822,-0.001941,0.010114,-0.024100,-0.019175,-0.008522,0.009587
1779593156.750250,-0.122654,-0.009766,0.312141,-0.015976,0.010907,0.526837,-0.004272,0.004688,-0.024562,-0.001065,0.320779,0,0,100,-0.122654,-0.009766,0.312141,-0.015976,0.010907,0.526837,-0.004272,0.004688,-0.024562,-0.012783,-0.009587,-0.001065
1779593156.752245,-0.122654,-0.009763,0.312141,-0.015985,0.010903,0.526828,0.003084,0.005687,-0.024434,-0.003196,0.320782,0,0,100,-0.122654,-0.009766,0.312141,-0.015976,0.010907,0.526837,-0.004272,0.004688,-0.024562,-0.012783,-0.009587,-0.001065
1779593156.756247,-0.122653,-0.009766,0.312140,-0.015977,0.010898,0.526840,-0.001668,0.000939,-0.024554,0.002131,0.320784,0,0,100,-0.122654,-0.009766,0.312141,-0.015976,0.010907,0.526837,-0.004272,0.004688,-0.024562,-0.012783,-0.009587,-0.001065
1779593156.760259,-0.122645,-0.009767,0.312138,-0.015958,0.010934,0.526818,-0.000246,0.008741,-0.024337,0.003196,0.320777,0,0,100,-0.122653,-0.009766,0.312140,-0.015977,0.010898,0.526841,-0.001668,0.000939,-0.024554,-0.003196,-0.005326,0.002131
1779593156.762250,-0.122647,-0.009772,0.312137,-0.015948,0.010927,0.526806,-0.007569,0.003146,-0.024605,-0.007457,0.320777,0,0,100,-0.122647,-0.009772,0.312137,-0.015948,0.010927,0.526806,-0.007569,0.003146,-0.024605,-0.006392,-0.006392,-0.007457
1779593156.766266,-0.122633,-0.009767,0.312137,-0.015951,0.010925,0.526782,0.003883,-0.007266,-0.024650,-0.008522,0.320782,0,0,100,-0.122647,-0.009772,0.312137,-0.015948,0.010927,0.526806,-0.007569,0.003146,-0.024605,-0.006392,-0.006392,-0.007457
1779593156.770261,-0.122639,-0.009776,0.312135,-0.015936,0.010916,0.526760,-0.008325,-0.002066,-0.024812,-0.004261,0.320782,0,0,100,-0.122639,-0.009776,0.312135,-0.015936,0.010916,0.526760,-0.008325,-0.002066,-0.024812,-0.006392,-0.009587,-0.004261
1779593156.772231,-0.122630,-0.009775,0.312133,-0.015927,0.010927,0.526732,0.001801,-0.005115,-0.024892,-0.017044,0.320780,0,0,100,-0.122639,-0.009776,0.312135,-0.015936,0.010916,0.526760,-0.008325,-0.002066,-0.024812,-0.006392,-0.009587,-0.004261
1779593156.776221,-0.122628,-0.009771,0.312133,-0.015941,0.010921,0.526706,-0.000924,-0.000688,-0.024872,-0.006392,0.320784,0,0,100,-0.122639,-0.009776,0.312135,-0.015936,0.010916,0.526760,-0.008325,-0.002066,-0.024812,-0.006392,-0.009587,-0.004261
1779593156.780236,-0.122626,-0.009770,0.312134,-0.015949,0.010930,0.526706,0.003309,0.000651,-0.024781,0.002131,0.320784,0,0,100,-0.122628,-0.009771,0.312133,-0.015941,0.010921,0.526707,-0.000924,-0.000688,-0.024872,-0.009587,-0.005326,-0.006392
1779593156.782262,-0.122632,-0.009772,0.312135,-0.015957,0.010912,0.526685,-0.001643,0.000024,-0.024785,-0.005326,0.320782,0,0,100,-0.122628,-0.009771,0.312133,-0.015941,0.010921,0.526707,-0.000924,-0.000688,-0.024872,-0.009587,-0.005326,-0.006392
1779593156.786251,-0.122629,-0.009776,0.312135,-0.015966,0.010914,0.526651,-0.003748,-0.001159,-0.024871,-0.005326,0.320784,0,0,100,-0.122632,-0.009772,0.312135,-0.015957,0.010912,0.526685,-0.001643,0.000024,-0.024785,-0.003196,-0.020240,-0.005326
1779593156.790250,-0.122624,-0.009773,0.312134,-0.015951,0.010921,0.526631,-0.000893,0.004322,-0.024650,-0.004261,0.320784,0,0,100,-0.122632,-0.009772,0.312135,-0.015957,0.010912,0.526685,-0.001643,0.000024,-0.024785,-0.003196,-0.020240,-0.005326
1779593156.792259,-0.122624,-0.009784,0.312134,-0.015944,0.010920,0.526634,-0.003258,-0.009870,-0.024806,0.004261,0.320784,0,0,100,-0.122624,-0.009773,0.312134,-0.015951,0.010921,0.526631,-0.000893,0.004322,-0.024650,-0.010653,0.002131,-0.004261
1779593156.796250,-0.122618,-0.009771,0.312132,-0.015947,0.010943,0.526644,0.007791,0.008556,-0.024392,-0.004261,0.320779,0,0,100,-0.122624,-0.009773,0.312134,-0.015951,0.010921,0.526631,-0.000893,0.004322,-0.024650,-0.010653,0.002131,-0.004261
1779593156.800249,-0.122612,-0.009774,0.312134,-0.015934,0.010942,0.526648,0.009680,0.003870,-0.024264,0.004261,0.320784,0,0,100,-0.122618,-0.009771,0.312132,-0.015947,0.010943,0.526644,0.007791,0.008556,-0.024392,-0.008522,0.013848,-0.004261
1779593156.802290,-0.122609,-0.009779,0.312136,-0.015930,0.010957,0.526645,0.005083,-0.003089,-0.024257,-0.005326,0.320788,0,0,100,-0.122618,-0.009771,0.312132,-0.015947,0.010943,0.526644,0.007791,0.008556,-0.024392,-0.008522,0.013848,-0.004261
1779593156.806321,-0.122616,-0.009783,0.312138,-0.015934,0.010941,0.526644,-0.000052,0.000696,-0.024073,0.000000,0.320784,0,0,100,-0.122609,-0.009779,0.312136,-0.015930,0.010957,0.526645,0.005083,-0.003089,-0.024257,-0.011718,-0.003196,-0.005326
1779593156.808293,-0.122617,-0.009786,0.312139,-0.015934,0.010943,0.526670,0.002210,-0.004411,-0.024110,0.020240,0.320786,0,0,100,-0.122617,-0.009786,0.312139,-0.015934,0.010943,0.526670,0.002210,-0.004411,-0.024110,-0.004261,0.000000,0.020240
1779593156.812260,-0.122621,-0.009778,0.312133,-0.015948,0.010951,0.526663,-0.000568,0.004160,-0.024217,0.002131,0.320784,0,0,100,-0.122617,-0.009786,0.312139,-0.015934,0.010943,0.526670,0.002210,-0.004411,-0.024110,-0.004261,0.000000,0.020240
1779593156.816265,-0.122620,-0.009778,0.312134,-0.015951,0.010947,0.526681,0.003206,-0.001840,-0.024240,0.006392,0.320779,0,0,100,-0.122617,-0.009786,0.312139,-0.015934,0.010943,0.526670,0.002210,-0.004411,-0.024110,-0.004261,0.000000,0.020240
1779593156.820251,-0.122622,-0.009775,0.312135,-0.015956,0.010952,0.526708,0.000880,0.006861,-0.024184,0.012783,0.320784,0,0,100,-0.122620,-0.009778,0.312134,-0.015951,0.010947,0.526681,0.003206,-0.001840,-0.024240,0.000000,-0.011718,0.006392
1779593156.822230,-0.122617,-0.009773,0.312135,-0.015944,0.010948,0.526730,0.011403,0.003923,-0.024149,0.010653,0.320784,0,0,100,-0.122620,-0.009778,0.312134,-0.015951,0.010947,0.526681,0.003206,-0.001840,-0.024240,0.000000,-0.011718,0.006392
1779593156.826214,-0.122620,-0.009768,0.312137,-0.015950,0.010957,0.526765,0.006605,0.007529,-0.024086,-0.009587,0.320784,0,0,100,-0.122617,-0.009773,0.312135,-0.015944,0.010948,0.526731,0.011403,0.003923,-0.024149,-0.002131,-0.005326,0.010653
1779593156.830287,-0.122626,-0.009773,0.312138,-0.015954,0.010955,0.526785,0.005655,-0.005941,-0.024359,0.003196,0.320784,0,0,100,-0.122626,-0.009773,0.312138,-0.015954,0.010955,0.526785,0.005655,-0.005941,-0.024359,-0.011718,0.008522,0.003196
1779593156.832356,-0.122627,-0.009767,0.312137,-0.015973,0.010947,0.526809,0.002231,-0.006158,-0.024495,0.012783,0.320782,0,0,100,-0.122626,-0.009773,0.312138,-0.015954,0.010955,0.526785,0.005655,-0.005941,-0.024359,-0.011718,0.008522,0.003196
1779593156.836585,-0.122645,-0.009759,0.312138,-0.015990,0.010923,0.526844,-0.000421,0.015143,-0.024261,0.008522,0.320784,0,0,100,-0.122626,-0.009773,0.312138,-0.015954,0.010955,0.526785,0.005655,-0.005941,-0.024359,-0.011718,0.008522,0.003196
1779593156.840357,-0.122640,-0.009758,0.312134,-0.015988,0.010941,0.526850,0.004082,0.002373,-0.024606,-0.004261,0.320782,0,0,100,-0.122645,-0.009759,0.312138,-0.015990,0.010923,0.526845,-0.000421,0.015143,-0.024261,-0.015979,-0.003196,0.008522
1779593156.842303,-0.122644,-0.009761,0.312133,-0.015986,0.010939,0.526852,0.000221,0.005216,-0.024628,0.001065,0.320784,0,0,100,-0.122645,-0.009759,0.312138,-0.015990,0.010923,0.526845,-0.000421,0.015143,-0.024261,-0.015979,-0.003196,0.008522
1779593156.846322,-0.122642,-0.009760,0.312134,-0.015984,0.010932,0.526863,0.005572,0.002415,-0.024490,0.009587,0.320786,0,0,100,-0.122644,-0.009761,0.312133,-0.015986,0.010939,0.526852,0.000221,0.005216,-0.024628,-0.012783,-0.002131,0.001065
1779593156.850194,-0.122630,-0.009768,0.312134,-0.015969,0.010944,0.526868,0.010270,-0.007916,-0.024433,0.009587,0.320788,0,0,100,-0.122644,-0.009761,0.312133,-0.015986,0.010939,0.526852,0.000221,0.005216,-0.024628,-0.012783,-0.002131,0.001065
1779593156.852241,-0.122639,-0.009768,0.312134,-0.015963,0.010930,0.526865,0.001289,-0.001349,-0.024375,-0.002131,0.320782,0,0,100,-0.122630,-0.009768,0.312134,-0.015969,0.010944,0.526868,0.010270,-0.007916,-0.024433,-0.006392,-0.010653,0.009587
1779593156.856386,-0.122644,-0.009779,0.312134,-0.015941,0.010907,0.526852,-0.003982,0.000671,-0.024438,-0.010653,0.320782,0,0,100,-0.122630,-0.009768,0.312134,-0.015969,0.010944,0.526868,0.010270,-0.007916,-0.024433,-0.006392,-0.010653,0.009587
1779593156.860249,-0.122644,-0.009783,0.312138,-0.015933,0.010896,0.526839,0.005767,-0.005425,-0.024297,-0.004261,0.320788,0,0,100,-0.122644,-0.009779,0.312134,-0.015941,0.010907,0.526852,-0.003982,0.000671,-0.024438,-0.004261,0.002131,-0.010653
1779593156.862246,-0.122641,-0.009779,0.312140,-0.015925,0.010914,0.526822,0.001673,-0.008868,-0.024317,-0.014914,0.320784,0,0,100,-0.122644,-0.009779,0.312134,-0.015941,0.010907,0.526852,-0.003982,0.000671,-0.024438,-0.004261,0.002131,-0.010653
1779593156.866248,-0.122631,-0.009772,0.312139,-0.015923,0.010923,0.526802,0.006187,0.007991,-0.023961,0.000000,0.320782,0,0,100,-0.122641,-0.009779,0.312140,-0.015925,0.010914,0.526822,0.001673,-0.008868,-0.024317,0.005326,0.003196,-0.014914
1779593156.870250,-0.122632,-0.009781,0.312139,-0.015933,0.010912,0.526768,-0.001421,0.000847,-0.024063,-0.008522,0.320784,0,0,100,-0.122641,-0.009779,0.312140,-0.015925,0.010914,0.526822,0.001673,-0.008868,-0.024317,0.005326,0.003196,-0.014914
1779593156.874288,-0.122624,-0.009772,0.312139,-0.015934,0.010934,0.526724,0.001177,0.005200,-0.023839,-0.015979,0.320782,0,0,100,-0.122632,-0.009781,0.312139,-0.015933,0.010912,0.526768,-0.001421,0.000847,-0.024063,-0.004261,-0.004261,-0.008522
1779593156.876343,-0.122628,-0.009777,0.312140,-0.015931,0.010939,0.526711,-0.003164,0.002467,-0.023981,-0.011718,0.320781,0,0,100,-0.122624,-0.009772,0.312139,-0.015934,0.010934,0.526724,0.001177,0.005200,-0.023839,-0.001065,-0.003196,-0.015979
1779593156.880324,-0.122624,-0.009779,0.312141,-0.015925,0.010913,0.526671,0.005136,0.001961,-0.023937,-0.003196,0.320782,0,0,100,-0.122624,-0.009772,0.312139,-0.015934,0.010934,0.526724,0.001177,0.005200,-0.023839,-0.001065,-0.003196,-0.015979
1779593156.882244,-0.122633,-0.009786,0.312142,-0.015918,0.010901,0.526659,-0.004754,0.000097,-0.024068,-0.011718,0.320786,0,0,100,-0.122624,-0.009779,0.312141,-0.015925,0.010913,0.526672,0.005136,0.001961,-0.023937,-0.006392,-0.006392,-0.003196
1779593156.886264,-0.122632,-0.009789,0.312143,-0.015911,0.010889,0.526625,-0.000895,0.009520,-0.023903,0.002131,0.320784,0,0,100,-0.122624,-0.009779,0.312141,-0.015925,0.010913,0.526672,0.005136,0.001961,-0.023937,-0.006392,-0.006392,-0.003196
1779593156.890253,-0.122632,-0.009796,0.312146,-0.015906,0.010865,0.526599,0.006962,0.001823,-0.023820,-0.012783,0.320786,0,0,100,-0.122632,-0.009789,0.312143,-0.015911,0.010889,0.526625,-0.000895,0.009520,-0.023903,-0.014914,-0.009587,0.002131
1779593156.892346,-0.122630,-0.009800,0.312147,-0.015902,0.010872,0.526587,0.004711,-0.005596,-0.023930,-0.011718,0.320786,0,0,100,-0.122632,-0.009789,0.312143,-0.015911,0.010889,0.526625,-0.000895,0.009520,-0.023903,-0.014914,-0.009587,0.002131
1779593156.897000,-0.122634,-0.009794,0.312149,-0.015905,0.010875,0.526577,-0.003237,0.010433,-0.023700,-0.001065,0.320784,0,0,100,-0.122630,-0.009800,0.312147,-0.015902,0.010872,0.526588,0.004711,-0.005596,-0.023930,-0.004261,0.004261,-0.011718
1779593156.898551,-0.122634,-0.009795,0.312149,-0.015905,0.010875,0.526577,-0.004324,0.011943,-0.023708,-0.001065,0.320784,0,0,100,-0.122634,-0.009795,0.312149,-0.015905,0.010875,0.526577,-0.004324,0.011943,-0.023708,-0.018109,-0.010653,-0.001065
1779593156.898551,-0.122634,-0.009795,0.312149,-0.015905,0.010875,0.526577,-0.004324,0.011943,-0.023708,-0.001065,0.320784,0,0,100,-0.122634,-0.009795,0.312149,-0.015905,0.010875,0.526577,-0.004324,0.011943,-0.023708,-0.018109,-0.010653,-0.001065
1779593156.906311,-0.122640,-0.009806,0.312156,-0.015891,0.010850,0.526607,-0.014407,0.001228,-0.023658,0.000000,0.320786,0,0,100,-0.122634,-0.009795,0.312149,-0.015905,0.010875,0.526577,-0.004324,0.011943,-0.023708,-0.018109,-0.010653,-0.001065
1779593156.910179,-0.122649,-0.009806,0.312157,-0.015894,0.010831,0.526665,-0.000051,-0.002471,-0.023602,0.007457,0.320780,0,0,100,-0.122634,-0.009795,0.312149,-0.015905,0.010875,0.526577,-0.004324,0.011943,-0.023708,-0.018109,-0.010653,-0.001065
1779593156.912250,-0.122650,-0.009810,0.312158,-0.015885,0.010827,0.526668,0.003495,0.001762,-0.023504,0.004261,0.320781,0,0,100,-0.122649,-0.009806,0.312157,-0.015894,0.010831,0.526665,-0.000051,-0.002471,-0.023602,-0.010653,-0.007457,0.007457
1779593156.916206,-0.122658,-0.009802,0.312158,-0.015902,0.010809,0.526720,0.004271,0.001179,-0.023600,0.005326,0.320784,0,0,100,-0.122649,-0.009806,0.312157,-0.015894,0.010831,0.526665,-0.000051,-0.002471,-0.023602,-0.010653,-0.007457,0.007457
1779593156.920221,-0.122666,-0.009817,0.312161,-0.015882,0.010785,0.526748,-0.002340,-0.004078,-0.023708,0.002131,0.320782,0,0,100,-0.122658,-0.009802,0.312158,-0.015902,0.010809,0.526720,0.004271,0.001179,-0.023600,-0.013848,0.002131,0.005326
1779593156.922374,-0.122665,-0.009814,0.312161,-0.015858,0.010778,0.526775,0.001624,0.011331,-0.023480,0.021305,0.320782,0,0,100,-0.122658,-0.009802,0.312158,-0.015902,0.010809,0.526720,0.004271,0.001179,-0.023600,-0.013848,0.002131,0.005326
1779593156.926292,-0.122647,-0.009815,0.312161,-0.015840,0.010807,0.526813,0.012233,-0.002274,-0.023625,0.005326,0.320784,0,0,100,-0.122665,-0.009814,0.312161,-0.015859,0.010778,0.526776,0.001624,0.011331,-0.023480,-0.001065,-0.017044,0.021305
1779593156.930294,-0.122645,-0.009806,0.312162,-0.015875,0.010841,0.526839,0.001592,-0.003423,-0.023761,0.002131,0.320788,0,0,100,-0.122645,-0.009806,0.312162,-0.015875,0.010841,0.526839,0.001592,-0.003423,-0.023761,-0.021305,0.007457,0.002131
1779593156.932338,-0.122651,-0.009803,0.312161,-0.015873,0.010838,0.526839,-0.003418,0.004428,-0.023783,0.003196,0.320784,0,0,100,-0.122645,-0.009806,0.312162,-0.015875,0.010841,0.526839,0.001592,-0.003423,-0.023761,-0.021305,0.007457,0.002131
1779593156.936508,-0.122654,-0.009816,0.312161,-0.015845,0.010806,0.526842,0.000227,0.003279,-0.023846,0.008522,0.320786,0,0,100,-0.122645,-0.009806,0.312162,-0.015875,0.010841,0.526839,0.001592,-0.003423,-0.023761,-0.021305,0.007457,0.002131
1779593156.940313,-0.122646,-0.009810,0.312160,-0.015850,0.010812,0.526852,0.008585,0.000935,-0.023864,-0.002131,0.320784,0,0,100,-0.122654,-0.009816,0.312161,-0.015845,0.010806,0.526842,0.000227,0.003279,-0.023846,-0.004261,-0.010653,0.008522
1779593156.942311,-0.122643,-0.009804,0.312161,-0.015854,0.010822,0.526852,0.008416,0.008657,-0.023726,0.003196,0.320788,0,0,100,-0.122654,-0.009816,0.312161,-0.015845,0.010806,0.526842,0.000227,0.003279,-0.023846,-0.004261,-0.010653,0.008522
1779593156.946216,-0.122647,-0.009817,0.312163,-0.015828,0.010825,0.526836,-0.002295,-0.006243,-0.023968,-0.004261,0.320782,0,0,100,-0.122643,-0.009804,0.312161,-0.015854,0.010822,0.526852,0.008416,0.008657,-0.023726,-0.020240,0.006392,0.003196
1779593156.950214,-0.122647,-0.009813,0.312157,-0.015833,0.010820,0.526813,-0.002892,0.003733,-0.023987,-0.009587,0.320782,0,0,100,-0.122643,-0.009804,0.312161,-0.015854,0.010822,0.526852,0.008416,0.008657,-0.023726,-0.020240,0.006392,0.003196
1779593156.952213,-0.122645,-0.009807,0.312155,-0.015845,0.010841,0.526809,-0.000376,0.004144,-0.023971,-0.005326,0.320782,0,0,100,-0.122647,-0.009813,0.312157,-0.015833,0.010820,0.526813,-0.002892,0.003733,-0.023987,-0.004261,-0.005326,-0.009587
1779593156.956321,-0.122637,-0.009803,0.312155,-0.015852,0.010856,0.526772,0.003173,0.003345,-0.023884,-0.006392,0.320784,0,0,100,-0.122637,-0.009803,0.312155,-0.015852,0.010856,0.526772,0.003173,0.003345,-0.023884,-0.006392,0.006392,-0.006392
1779593156.958292,-0.122631,-0.009805,0.312156,-0.015860,0.010873,0.526749,-0.002563,-0.007894,-0.024121,-0.003196,0.320784,0,0,100,-0.122637,-0.009803,0.312155,-0.015852,0.010856,0.526772,0.003173,0.003345,-0.023884,-0.006392,0.006392,-0.006392
1779593156.962299,-0.122634,-0.009806,0.312156,-0.015854,0.010849,0.526725,0.000395,-0.000775,-0.023842,-0.004261,0.320784,0,0,100,-0.122637,-0.009803,0.312155,-0.015852,0.010856,0.526772,0.003173,0.003345,-0.023884,-0.006392,0.006392,-0.006392
1779593156.964236,-0.122630,-0.009806,0.312160,-0.015857,0.010849,0.526683,0.009705,0.000765,-0.023531,-0.013848,0.320786,0,0,100,-0.122634,-0.009806,0.312156,-0.015854,0.010849,0.526725,0.000395,-0.000775,-0.023842,-0.008522,-0.012783,-0.004261
1779593156.964236,-0.122630,-0.009806,0.312160,-0.015857,0.010849,0.526683,0.009705,0.000765,-0.023531,-0.013848,0.320786,0,0,100,-0.122634,-0.009806,0.312156,-0.015854,0.010849,0.526725,0.000395,-0.000775,-0.023842,-0.008522,-0.012783,-0.004261
1779593156.964236,-0.122630,-0.009806,0.312160,-0.015857,0.010849,0.526683,0.009705,0.000765,-0.023531,-0.013848,0.320786,0,0,100,-0.122630,-0.009806,0.312160,-0.015857,0.010849,0.526683,0.009705,0.000765,-0.023531,-0.004261,-0.001065,-0.013848
1779593156.976229,-0.122623,-0.009815,0.312163,-0.015846,0.010860,0.526640,-0.002689,-0.005833,-0.023787,-0.001065,0.320790,0,0,100,-0.122630,-0.009806,0.312160,-0.015857,0.010849,0.526683,0.009705,0.000765,-0.023531,-0.004261,-0.001065,-0.013848
1779593156.980154,-0.122625,-0.009810,0.312163,-0.015859,0.010863,0.526618,-0.004428,-0.001614,-0.023911,-0.003196,0.320786,0,0,100,-0.122623,-0.009815,0.312163,-0.015846,0.010860,0.526640,-0.002689,-0.005833,-0.023787,-0.014914,-0.003196,-0.001065
1779593156.982158,-0.122627,-0.009805,0.312164,-0.015877,0.010852,0.526627,0.001802,0.007740,-0.023739,0.005326,0.320786,0,0,100,-0.122627,-0.009805,0.312164,-0.015877,0.010852,0.526627,0.001802,0.007740,-0.023739,-0.024501,-0.003196,0.005326
1779593156.986159,-0.122633,-0.009808,0.312163,-0.015889,0.010856,0.526630,-0.004827,-0.003119,-0.024051,0.003196,0.320784,0,0,100,-0.122627,-0.009805,0.312164,-0.015877,0.010852,0.526627,0.001802,0.007740,-0.023739,-0.024501,-0.003196,0.005326
1779593156.990191,-0.122627,-0.009800,0.312163,-0.015883,0.010867,0.526634,0.004822,0.001507,-0.023881,0.005326,0.320782,0,0,100,-0.122627,-0.009805,0.312164,-0.015877,0.010852,0.526627,0.001802,0.007740,-0.023739,-0.024501,-0.003196,0.005326
1779593156.992270,-0.122627,-0.009803,0.312161,-0.015878,0.010881,0.526630,-0.002416,0.003144,-0.024051,-0.003196,0.320784,0,0,100,-0.122627,-0.009800,0.312163,-0.015883,0.010867,0.526635,0.004822,0.001507,-0.023881,0.001065,0.000000,0.005326
1779593156.996328,-0.122627,-0.009797,0.312162,-0.015877,0.010887,0.526646,-0.002512,0.009310,-0.023767,0.008522,0.320784,0,0,100,-0.122627,-0.009800,0.312163,-0.015883,0.010867,0.526635,0.004822,0.001507,-0.023881,0.001065,0.000000,0.005326
1779593157.000299,-0.122628,-0.009808,0.312164,-0.015867,0.010863,0.526691,-0.006442,0.001855,-0.023701,0.006392,0.320784,0,0,100,-0.122627,-0.009797,0.312162,-0.015877,0.010887,0.526646,-0.002512,0.009310,-0.023767,-0.006392,-0.004261,0.008522
1779593157.003451,-0.122637,-0.009799,0.312165,-0.015886,0.010881,0.526721,-0.016591,0.002304,-0.023771,0.004261,0.320786,0,0,100,-0.122637,-0.009799,0.312165,-0.015886,0.010881,0.526721,-0.016591,0.002304,-0.023771,-0.001065,-0.010653,0.004261
1779593157.006217,-0.122639,-0.009797,0.312166,-0.015891,0.010877,0.526724,-0.011467,0.008048,-0.023570,0.003196,0.320784,0,0,100,-0.122637,-0.009799,0.312165,-0.015886,0.010881,0.526721,-0.016591,0.002304,-0.023771,-0.001065,-0.010653,0.004261
1779593157.010220,-0.122640,-0.009797,0.312167,-0.015870,0.010868,0.526753,0.006932,0.002728,-0.023466,0.013848,0.320782,0,0,100,-0.122637,-0.009799,0.312165,-0.015886,0.010881,0.526721,-0.016591,0.002304,-0.023771,-0.001065,-0.010653,0.004261
1779593157.012218,-0.122644,-0.009796,0.312166,-0.015869,0.010868,0.526767,0.002115,0.008313,-0.023482,0.014914,0.320782,0,0,100,-0.122640,-0.009797,0.312167,-0.015870,0.010868,0.526753,0.006932,0.002728,-0.023466,-0.003196,0.001065,0.013848
1779593157.016290,-0.122647,-0.009791,0.312169,-0.015873,0.010878,0.526794,-0.012225,0.011910,-0.023545,0.003196,0.320780,0,0,100,-0.122647,-0.009791,0.312169,-0.015873,0.010878,0.526794,-0.012225,0.011910,-0.023545,-0.006392,-0.011718,0.003196
1779593157.020294,-0.122637,-0.009787,0.312168,-0.015880,0.010900,0.526804,-0.000579,0.008782,-0.023579,0.004261,0.320782,0,0,100,-0.122647,-0.009791,0.312169,-0.015873,0.010878,0.526794,-0.012225,0.011910,-0.023545,-0.006392,-0.011718,0.003196
1779593157.022283,-0.122635,-0.009783,0.312170,-0.015891,0.010898,0.526805,0.010452,0.002791,-0.023545,-0.010653,0.320786,0,0,100,-0.122635,-0.009783,0.312170,-0.015891,0.010898,0.526805,0.010452,0.002791,-0.023545,-0.011718,-0.002131,-0.010653
1779593157.026250,-0.122641,-0.009780,0.312168,-0.015897,0.010899,0.526799,0.003351,0.004406,-0.023725,0.003196,0.320782,0,0,100,-0.122635,-0.009783,0.312170,-0.015891,0.010898,0.526805,0.010452,0.002791,-0.023545,-0.011718,-0.002131,-0.010653
1779593157.030254,-0.122630,-0.009777,0.312167,-0.015893,0.010918,0.526790,0.005828,0.012214,-0.023666,-0.003196,0.320784,0,0,100,-0.122635,-0.009783,0.312170,-0.015891,0.010898,0.526805,0.010452,0.002791,-0.023545,-0.011718,-0.002131,-0.010653
1779593157.030254,-0.122630,-0.009777,0.312167,-0.015893,0.010918,0.526790,0.005828,0.012214,-0.023666,-0.003196,0.320784,0,0,100,-0.122630,-0.009777,0.312167,-0.015893,0.010918,0.526791,0.005828,0.012214,-0.023666,-0.012783,0.001065,-0.003196
1779593157.036947,-0.122623,-0.009780,0.312166,-0.015882,0.010928,0.526754,0.009330,0.005623,-0.023802,0.001065,0.320782,0,0,100,-0.122630,-0.009777,0.312167,-0.015893,0.010918,0.526791,0.005828,0.012214,-0.023666,-0.012783,0.001065,-0.003196
1779593157.040252,-0.122628,-0.009790,0.312164,-0.015870,0.010909,0.526746,-0.001640,0.001306,-0.024008,-0.002131,0.320782,0,0,100,-0.122630,-0.009777,0.312167,-0.015893,0.010918,0.526791,0.005828,0.012214,-0.023666,-0.012783,0.001065,-0.003196
1779593157.042189,-0.122625,-0.009787,0.312165,-0.015883,0.010922,0.526724,0.001998,0.000073,-0.023848,-0.010653,0.320784,0,0,100,-0.122628,-0.009790,0.312164,-0.015870,0.010909,0.526746,-0.001640,0.001306,-0.024008,-0.007457,-0.003196,-0.002131
1779593157.046191,-0.122623,-0.009790,0.312161,-0.015874,0.010920,0.526697,-0.000897,0.005566,-0.023860,-0.006392,0.320782,0,0,100,-0.122628,-0.009790,0.312164,-0.015870,0.010909,0.526746,-0.001640,0.001306,-0.024008,-0.007457,-0.003196,-0.002131
1779593157.050190,-0.122618,-0.009798,0.312159,-0.015873,0.010925,0.526650,-0.002709,-0.003909,-0.023898,-0.008522,0.320784,0,0,100,-0.122623,-0.009790,0.312161,-0.015874,0.010920,0.526697,-0.000897,0.005566,-0.023860,-0.007457,-0.005326,-0.006392
1779593157.052194,-0.122617,-0.009804,0.312160,-0.015882,0.010908,0.526611,0.001930,-0.011981,-0.023775,-0.012783,0.320784,0,0,100,-0.122623,-0.009790,0.312161,-0.015874,0.010920,0.526697,-0.000897,0.005566,-0.023860,-0.007457,-0.005326,-0.006392
1779593157.056280,-0.122617,-0.009802,0.312160,-0.015867,0.010918,0.526589,0.001762,-0.008445,-0.023639,-0.007457,0.320782,0,0,100,-0.122617,-0.009804,0.312160,-0.015882,0.010908,0.526611,0.001930,-0.011981,-0.023775,-0.011718,-0.003196,-0.012783
1779593157.060330,-0.122622,-0.009802,0.312160,-0.015872,0.010918,0.526550,-0.005897,-0.000359,-0.023634,-0.012783,0.320780,0,0,100,-0.122617,-0.009804,0.312160,-0.015882,0.010908,0.526611,0.001930,-0.011981,-0.023775,-0.011718,-0.003196,-0.012783
1779593157.062321,-0.122628,-0.009808,0.312163,-0.015870,0.010898,0.526536,-0.017429,-0.006456,-0.023822,-0.013848,0.320782,0,0,100,-0.122622,-0.009802,0.312160,-0.015872,0.010918,0.526551,-0.005897,-0.000359,-0.023634,-0.004261,-0.009587,-0.012783
1779593157.066250,-0.122632,-0.009807,0.312164,-0.015865,0.010876,0.526529,-0.006281,0.005752,-0.023426,0.007457,0.320777,0,0,100,-0.122622,-0.009802,0.312160,-0.015872,0.010918,0.526551,-0.005897,-0.000359,-0.023634,-0.004261,-0.009587,-0.012783
1779593157.070247,-0.122626,-0.009802,0.312164,-0.015883,0.010867,0.526524,0.005913,0.008047,-0.023367,-0.002131,0.320784,0,0,100,-0.122632,-0.009807,0.312164,-0.015865,0.010876,0.526529,-0.006281,0.005752,-0.023426,-0.005326,-0.001065,0.007457
1779593157.072246,-0.122629,-0.009815,0.312165,-0.015872,0.010847,0.526527,-0.001993,-0.013665,-0.023803,0.000000,0.320784,0,0,100,-0.122632,-0.009807,0.312164,-0.015865,0.010876,0.526529,-0.006281,0.005752,-0.023426,-0.005326,-0.001065,0.007457
1779593157.076296,-0.122634,-0.009811,0.312166,-0.015868,0.010855,0.526528,-0.006080,0.002489,-0.023671,-0.002131,0.320782,0,0,100,-0.122629,-0.009815,0.312165,-0.015872,0.010847,0.526527,-0.001993,-0.013665,-0.023803,0.001065,-0.013848,0.000000
1779593157.080293,-0.122631,-0.009810,0.312166,-0.015866,0.010847,0.526547,0.002765,0.011264,-0.023448,0.008522,0.320782,0,0,100,-0.122629,-0.009815,0.312165,-0.015872,0.010847,0.526527,-0.001993,-0.013665,-0.023803,0.001065,-0.013848,0.000000
1779593157.082323,-0.122630,-0.009815,0.312170,-0.015873,0.010836,0.526554,0.011324,0.001680,-0.023301,0.004261,0.320788,0,0,100,-0.122631,-0.009810,0.312166,-0.015866,0.010847,0.526547,0.002765,0.011264,-0.023448,-0.015979,-0.002131,0.008522
1779593157.086246,-0.122636,-0.009805,0.312169,-0.015882,0.010843,0.526583,0.004037,0.010639,-0.023357,0.012783,0.320784,0,0,100,-0.122636,-0.009805,0.312169,-0.015882,0.010843,0.526584,0.004037,0.010639,-0.023357,-0.007457,-0.003196,0.012783
1779593157.090249,-0.122648,-0.009820,0.312171,-0.015876,0.010812,0.526631,-0.005646,0.000933,-0.023527,0.004261,0.320788,0,0,100,-0.122636,-0.009805,0.312169,-0.015882,0.010843,0.526584,0.004037,0.010639,-0.023357,-0.007457,-0.003196,0.012783
1779593157.092261,-0.122653,-0.009811,0.312171,-0.015893,0.010822,0.526661,-0.007582,0.005534,-0.023450,0.013848,0.320784,0,0,100,-0.122636,-0.009805,0.312169,-0.015882,0.010843,0.526584,0.004037,0.010639,-0.023357,-0.007457,-0.003196,0.012783
1779593157.096246,-0.122656,-0.009816,0.312173,-0.015884,0.010802,0.526701,-0.002040,-0.008355,-0.023448,0.011718,0.320784,0,0,100,-0.122653,-0.009811,0.312171,-0.015893,0.010822,0.526661,-0.007582,0.005534,-0.023450,-0.011718,-0.001065,0.013848
1779593157.100263,-0.122665,-0.009809,0.312172,-0.015895,0.010776,0.526735,0.005008,0.005297,-0.023233,0.015979,0.320784,0,0,100,-0.122665,-0.009809,0.312172,-0.015895,0.010776,0.526736,0.005008,0.005297,-0.023233,-0.006392,0.001065,0.015979
1779593157.102347,-0.122666,-0.009808,0.312172,-0.015895,0.010776,0.526735,0.006054,0.007120,-0.023242,0.015979,0.320784,0,0,100,-0.122665,-0.009809,0.312172,-0.015895,0.010776,0.526736,0.005008,0.005297,-0.023233,-0.006392,0.001065,0.015979
1779593157.106264,-0.122666,-0.009807,0.312172,-0.015895,0.010776,0.526735,0.006326,0.007594,-0.023327,0.015979,0.320784,0,0,100,-0.122666,-0.009808,0.312172,-0.015895,0.010776,0.526736,0.006054,0.007120,-0.023242,-0.006392,0.001065,0.015979
1779593157.110237,-0.122673,-0.009805,0.312173,-0.015919,0.010779,0.526837,0.001179,0.002269,-0.023534,0.001065,0.320784,0,0,100,-0.122666,-0.009808,0.312172,-0.015895,0.010776,0.526736,0.006054,0.007120,-0.023242,-0.006392,0.001065,0.015979
1779593157.112214,-0.122678,-0.009808,0.312172,-0.015931,0.010766,0.526849,-0.006981,-0.007116,-0.023850,0.007457,0.320786,0,0,100,-0.122673,-0.009805,0.312173,-0.015919,0.010779,0.526837,0.001179,0.002269,-0.023534,-0.012783,0.002131,0.001065
1779593157.116183,-0.122676,-0.009804,0.312171,-0.015932,0.010772,0.526850,0.003306,-0.004941,-0.023836,-0.001065,0.320786,0,0,100,-0.122673,-0.009805,0.312173,-0.015919,0.010779,0.526837,0.001179,0.002269,-0.023534,-0.012783,0.002131,0.001065
1779593157.120165,-0.122684,-0.009811,0.312171,-0.015919,0.010751,0.526874,-0.001218,-0.005395,-0.023874,0.010653,0.320786,0,0,100,-0.122676,-0.009804,0.312171,-0.015932,0.010772,0.526850,0.003306,-0.004941,-0.023836,0.001065,-0.004261,-0.001065
1779593157.122174,-0.122685,-0.009806,0.312172,-0.015916,0.010741,0.526884,0.004616,-0.003304,-0.023697,0.010653,0.320784,0,0,100,-0.122676,-0.009804,0.312171,-0.015932,0.010772,0.526850,0.003306,-0.004941,-0.023836,0.001065,-0.004261,-0.001065
1779593157.126241,-0.122682,-0.009805,0.312171,-0.015914,0.010751,0.526871,0.002807,0.003439,-0.023613,-0.007457,0.320784,0,0,100,-0.122685,-0.009806,0.312172,-0.015916,0.010741,0.526884,0.004616,-0.003304,-0.023697,-0.005326,-0.002131,0.010653
1779593157.128229,-0.122684,-0.009800,0.312171,-0.015911,0.010761,0.526870,-0.002654,0.008676,-0.023561,0.000000,0.320784,0,0,100,-0.122685,-0.009806,0.312172,-0.015916,0.010741,0.526884,0.004616,-0.003304,-0.023697,-0.005326,-0.002131,0.010653
1779593157.132346,-0.122677,-0.009800,0.312169,-0.015927,0.010770,0.526822,-0.000999,-0.004650,-0.023971,-0.008522,0.320786,0,0,100,-0.122684,-0.009800,0.312171,-0.015911,0.010761,0.526870,-0.002654,0.008676,-0.023561,-0.005326,0.008522,0.000000
1779593157.136249,-0.122675,-0.009800,0.312171,-0.015920,0.010762,0.526786,0.006602,0.000454,-0.023716,-0.017044,0.320782,0,0,100,-0.122684,-0.009800,0.312171,-0.015911,0.010761,0.526870,-0.002654,0.008676,-0.023561,-0.005326,0.008522,0.000000
1779593157.140245,-0.122670,-0.009800,0.312172,-0.015921,0.010778,0.526744,0.002838,0.004926,-0.023505,0.002131,0.320780,0,0,100,-0.122675,-0.009800,0.312171,-0.015920,0.010762,0.526786,0.006602,0.000454,-0.023716,-0.009587,-0.008522,-0.017044
1779593157.142243,-0.122664,-0.009797,0.312171,-0.015925,0.010786,0.526713,0.004482,0.001346,-0.023583,-0.010653,0.320780,0,0,100,-0.122675,-0.009800,0.312171,-0.015920,0.010762,0.526786,0.006602,0.000454,-0.023716,-0.009587,-0.008522,-0.017044
1779593157.146333,-0.122666,-0.009797,0.312170,-0.015936,0.010767,0.526693,0.006888,0.003977,-0.023482,-0.009587,0.320782,0,0,100,-0.122664,-0.009797,0.312171,-0.015925,0.010786,0.526714,0.004482,0.001346,-0.023583,-0.009587,0.000000,-0.010653
1779593157.150328,-0.122658,-0.009802,0.312171,-0.015921,0.010797,0.526652,-0.001426,-0.005965,-0.023524,-0.002131,0.320786,0,0,100,-0.122664,-0.009797,0.312171,-0.015925,0.010786,0.526714,0.004482,0.001346,-0.023583,-0.009587,0.000000,-0.010653
1779593157.152289,-0.122654,-0.009793,0.312170,-0.015927,0.010813,0.526645,0.002403,0.004551,-0.023287,-0.008522,0.320782,0,0,100,-0.122658,-0.009802,0.312171,-0.015921,0.010797,0.526653,-0.001426,-0.005965,-0.023524,-0.005326,0.002131,-0.002131
1779593157.156253,-0.122655,-0.009796,0.312172,-0.015918,0.010816,0.526631,-0.005404,-0.000153,-0.023423,-0.019175,0.320780,0,0,100,-0.122658,-0.009802,0.312171,-0.015921,0.010797,0.526653,-0.001426,-0.005965,-0.023524,-0.005326,0.002131,-0.002131
1779593157.160256,-0.122657,-0.009802,0.312171,-0.015913,0.010798,0.526593,0.001126,-0.004576,-0.023548,-0.006392,0.320782,0,0,100,-0.122655,-0.009796,0.312172,-0.015918,0.010816,0.526631,-0.005404,-0.000153,-0.023423,-0.010653,-0.008522,-0.019175
1779593157.162251,-0.122650,-0.009807,0.312171,-0.015911,0.010817,0.526595,-0.000519,-0.000161,-0.023514,0.003196,0.320786,0,0,100,-0.122655,-0.009796,0.312172,-0.015918,0.010816,0.526631,-0.005404,-0.000153,-0.023423,-0.010653,-0.008522,-0.019175
1779593157.166260,-0.122657,-0.009805,0.312170,-0.015904,0.010790,0.526575,-0.003762,0.005641,-0.023618,-0.011718,0.320784,0,0,100,-0.122650,-0.009807,0.312171,-0.015911,0.010817,0.526596,-0.000519,-0.000161,-0.023514,-0.007457,0.010653,0.003196
1779593157.170319,-0.122661,-0.009813,0.312166,-0.015919,0.010779,0.526577,-0.002057,-0.001429,-0.023897,0.002131,0.320784,0,0,100,-0.122650,-0.009807,0.312171,-0.015911,0.010817,0.526596,-0.000519,-0.000161,-0.023514,-0.007457,0.010653,0.003196
1779593157.172259,-0.122667,-0.009810,0.312166,-0.015935,0.010777,0.526590,-0.005520,0.002434,-0.023902,0.004261,0.320781,0,0,100,-0.122661,-0.009813,0.312166,-0.015919,0.010779,0.526577,-0.002057,-0.001429,-0.023897,-0.006392,-0.003196,0.002131
1779593157.176225,-0.122669,-0.009815,0.312165,-0.015924,0.010754,0.526590,0.000040,0.006376,-0.023793,-0.005326,0.320783,0,0,100,-0.122661,-0.009813,0.312166,-0.015919,0.010779,0.526577,-0.002057,-0.001429,-0.023897,-0.006392,-0.003196,0.002131
1779593157.180212,-0.122670,-0.009812,0.312162,-0.015924,0.010755,0.526597,-0.002984,0.010899,-0.023774,0.010653,0.320784,0,0,100,-0.122669,-0.009815,0.312165,-0.015924,0.010754,0.526590,0.000040,0.006376,-0.023793,-0.019175,-0.004261,-0.005326
1779593157.182230,-0.122666,-0.009809,0.312163,-0.015933,0.010750,0.526603,0.009223,0.008210,-0.023583,0.006392,0.320784,0,0,100,-0.122669,-0.009815,0.312165,-0.015924,0.010754,0.526590,0.000040,0.006376,-0.023793,-0.019175,-0.004261,-0.005326
1779593157.186264,-0.122667,-0.009820,0.312164,-0.015890,0.010743,0.526640,-0.001395,0.004125,-0.023795,0.017044,0.320788,0,0,100,-0.122666,-0.009809,0.312163,-0.015934,0.010750,0.526603,0.009223,0.008210,-0.023583,-0.019175,-0.008522,0.006392
1779593157.190267,-0.122653,-0.009821,0.312164,-0.015871,0.010749,0.526662,0.008886,0.000446,-0.023750,0.004261,0.320788,0,0,100,-0.122666,-0.009809,0.312163,-0.015934,0.010750,0.526603,0.009223,0.008210,-0.023583,-0.019175,-0.008522,0.006392
1779593157.192400,-0.122652,-0.009823,0.312164,-0.015860,0.010752,0.526691,0.004076,-0.002661,-0.023847,0.015979,0.320782,0,0,100,-0.122653,-0.009821,0.312164,-0.015871,0.010749,0.526662,0.008886,0.000446,-0.023750,-0.009587,-0.001065,0.004261
1779593157.196255,-0.122664,-0.009824,0.312167,-0.015872,0.010732,0.526739,0.001759,0.000138,-0.023678,0.011718,0.320784,0,0,100,-0.122653,-0.009821,0.312164,-0.015871,0.010749,0.526662,0.008886,0.000446,-0.023750,-0.009587,-0.001065,0.004261
1779593157.200247,-0.122665,-0.009808,0.312168,-0.015904,0.010750,0.526771,0.002005,0.006559,-0.023476,0.005326,0.320786,0,0,100,-0.122664,-0.009824,0.312167,-0.015872,0.010732,0.526739,0.001759,0.000138,-0.023678,-0.012783,-0.006392,0.011718
1779593157.202241,-0.122662,-0.009803,0.312169,-0.015910,0.010766,0.526801,0.006208,0.007980,-0.023352,0.012783,0.320786,0,0,100,-0.122664,-0.009824,0.312167,-0.015872,0.010732,0.526739,0.001759,0.000138,-0.023678,-0.012783,-0.006392,0.011718
1779593157.206328,-0.122650,-0.009800,0.312169,-0.015914,0.010812,0.526817,0.002494,-0.007635,-0.023634,0.001065,0.320784,0,0,100,-0.122662,-0.009803,0.312169,-0.015910,0.010766,0.526801,0.006208,0.007980,-0.023352,-0.009587,0.009587,0.012783
1779593157.210322,-0.122652,-0.009786,0.312166,-0.015926,0.010830,0.526840,0.004252,0.003682,-0.023579,0.005326,0.320786,0,0,100,-0.122652,-0.009786,0.312166,-0.015926,0.010830,0.526840,0.004252,0.003682,-0.023579,-0.017044,0.005326,0.005326
1779593157.212401,-0.122637,-0.009785,0.312167,-0.015932,0.010860,0.526839,0.004655,-0.001188,-0.023617,-0.001065,0.320786,0,0,100,-0.122652,-0.009786,0.312166,-0.015926,0.010830,0.526840,0.004252,0.003682,-0.023579,-0.017044,0.005326,0.005326
1779593157.216310,-0.122647,-0.009785,0.312164,-0.015908,0.010859,0.526834,-0.009631,0.008127,-0.023863,0.003196,0.320779,0,0,100,-0.122652,-0.009786,0.312166,-0.015926,0.010830,0.526840,0.004252,0.003682,-0.023579,-0.017044,0.005326,0.005326
1779593157.220297,-0.122635,-0.009773,0.312165,-0.015921,0.010873,0.526830,0.011447,0.005528,-0.023664,0.000000,0.320786,0,0,100,-0.122647,-0.009785,0.312164,-0.015908,0.010859,0.526835,-0.009631,0.008127,-0.023863,-0.009587,-0.005326,0.003196
1779593157.222341,-0.122637,-0.009776,0.312162,-0.015922,0.010884,0.526833,0.003737,0.004245,-0.023877,0.000000,0.320784,0,0,100,-0.122647,-0.009785,0.312164,-0.015908,0.010859,0.526835,-0.009631,0.008127,-0.023863,-0.009587,-0.005326,0.003196
1779593157.226255,-0.122637,-0.009771,0.312161,-0.015939,0.010896,0.526802,-0.000225,0.008784,-0.023980,-0.009587,0.320784,0,0,100,-0.122637,-0.009776,0.312162,-0.015922,0.010884,0.526833,0.003737,0.004245,-0.023877,-0.006392,0.001065,0.000000
1779593157.230374,-0.122632,-0.009772,0.312160,-0.015955,0.010917,0.526771,-0.006372,-0.006988,-0.024184,-0.015979,0.320786,0,0,100,-0.122637,-0.009776,0.312162,-0.015922,0.010884,0.526833,0.003737,0.004245,-0.023877,-0.006392,0.001065,0.000000
1779593157.230374,-0.122632,-0.009772,0.312160,-0.015955,0.010917,0.526771,-0.006372,-0.006988,-0.024184,-0.015979,0.320786,0,0,100,-0.122632,-0.009772,0.312160,-0.015955,0.010917,0.526771,-0.006372,-0.006988,-0.024184,-0.011718,0.000000,-0.015979
1779593157.230374,-0.122632,-0.009772,0.312160,-0.015955,0.010917,0.526771,-0.006372,-0.006988,-0.024184,-0.015979,0.320786,0,0,100,-0.122632,-0.009772,0.312160,-0.015955,0.010917,0.526771,-0.006372,-0.006988,-0.024184,-0.011718,0.000000,-0.015979
1779593157.230374,-0.122632,-0.009772,0.312160,-0.015955,0.010917,0.526771,-0.006372,-0.006988,-0.024184,-0.015979,0.320786,0,0,100,-0.122632,-0.009772,0.312160,-0.015955,0.010917,0.526771,-0.006372,-0.006988,-0.024184,-0.011718,0.000000,-0.015979
1779593157.230374,-0.122632,-0.009772,0.312160,-0.015955,0.010917,0.526771,-0.006372,-0.006988,-0.024184,-0.015979,0.320786,0,0,100,-0.122632,-0.009772,0.312160,-0.015955,0.010917,0.526771,-0.006372,-0.006988,-0.024184,-0.011718,0.000000,-0.015979
1779593157.246186,-0.122627,-0.009788,0.312159,-0.015903,0.010888,0.526707,-0.006296,-0.007513,-0.024114,-0.003196,0.320780,0,0,100,-0.122632,-0.009772,0.312160,-0.015955,0.010917,0.526771,-0.006372,-0.006988,-0.024184,-0.011718,0.000000,-0.015979
1779593157.250184,-0.122623,-0.009792,0.312157,-0.015885,0.010898,0.526694,-0.007918,0.000998,-0.024140,0.006392,0.320779,0,0,100,-0.122632,-0.009772,0.312160,-0.015955,0.010917,0.526771,-0.006372,-0.006988,-0.024184,-0.011718,0.000000,-0.015979
1779593157.252154,-0.122610,-0.009786,0.312157,-0.015892,0.010913,0.526696,0.008682,0.006476,-0.023937,0.004261,0.320784,0,0,100,-0.122623,-0.009792,0.312157,-0.015885,0.010898,0.526694,-0.007918,0.000998,-0.024140,-0.005326,0.001065,0.006392
1779593157.256154,-0.122622,-0.009790,0.312157,-0.015898,0.010892,0.526694,-0.004638,0.000800,-0.024175,0.010653,0.320786,0,0,100,-0.122623,-0.009792,0.312157,-0.015885,0.010898,0.526694,-0.007918,0.000998,-0.024140,-0.005326,0.001065,0.006392
1779593157.260198,-0.122620,-0.009788,0.312157,-0.015899,0.010914,0.526701,-0.005480,-0.000450,-0.024222,0.004261,0.320784,0,0,100,-0.122622,-0.009790,0.312157,-0.015898,0.010892,0.526694,-0.004638,0.000800,-0.024175,-0.014914,-0.010653,0.010653
1779593157.262202,-0.122615,-0.009781,0.312156,-0.015896,0.010921,0.526724,0.002862,0.005327,-0.024092,0.010653,0.320786,0,0,100,-0.122622,-0.009790,0.312157,-0.015898,0.010892,0.526694,-0.004638,0.000800,-0.024175,-0.014914,-0.010653,0.010653
1779593157.266251,-0.122607,-0.009782,0.312155,-0.015893,0.010936,0.526731,0.008313,-0.002484,-0.024055,0.001065,0.320788,0,0,100,-0.122615,-0.009781,0.312156,-0.015896,0.010921,0.526724,0.002862,0.005327,-0.024092,-0.007457,-0.001065,0.010653
1779593157.270319,-0.122611,-0.009781,0.312154,-0.015880,0.010946,0.526809,0.004317,0.006894,-0.023914,0.018109,0.320784,0,0,100,-0.122615,-0.009781,0.312156,-0.015896,0.010921,0.526724,0.002862,0.005327,-0.024092,-0.007457,-0.001065,0.010653
1779593157.272285,-0.122601,-0.009790,0.312159,-0.015854,0.010941,0.526831,0.012397,-0.005406,-0.023814,0.005326,0.320792,0,0,100,-0.122611,-0.009781,0.312154,-0.015880,0.010946,0.526809,0.004317,0.006894,-0.023914,-0.010653,0.006392,0.018109
