time_s,sport_x,sport_y,sport_z,sport_roll,sport_pitch,sport_yaw,sport_vx,sport_vy,sport_vz,sport_yaw_speed,body_height,mode,gait_type,error_code,odom_x,odom_y,odom_z,odom_roll,odom_pitch,odom_yaw,odom_vx,odom_vy,odom_vz,odom_wx,odom_wy,odom_wz
1779593374.604314,-0.129033,-0.019905,0.306633,-0.023685,0.005254,0.537538,-0.000000,-0.000000,0.000000,0.001065,0.316236,0,0,100,0.000000,0.000000,0.000000,0.000000,0.000000,0.000000,0.000000,0.000000,0.000000,0.000000,0.000000,0.000000
1779593374.608330,-0.129034,-0.019914,0.306633,-0.023668,0.005242,0.537581,-0.000000,-0.000000,0.000000,0.006392,0.316236,0,0,100,0.000000,0.000000,0.000000,0.000000,0.000000,0.000000,0.000000,0.000000,0.000000,0.000000,0.000000,0.000000
1779593374.610192,-0.129040,-0.019910,0.306633,-0.023666,0.005257,0.537591,-0.000000,0.000000,0.000000,0.008522,0.316234,0,0,100,0.000000,0.000000,0.000000,0.000000,0.000000,0.000000,0.000000,0.000000,0.000000,0.000000,0.000000,0.000000
1779593374.614180,-0.129045,-0.019918,0.306633,-0.023660,0.005222,0.537591,-0.000000,-0.000000,0.000000,0.004261,0.316236,0,0,100,0.000000,0.000000,0.000000,0.000000,0.000000,0.000000,0.000000,0.000000,0.000000,0.000000,0.000000,0.000000
1779593374.618189,-0.129045,-0.019908,0.306632,-0.023688,0.005235,0.537602,0.000000,-0.000000,0.000000,0.001065,0.316236,0,0,100,0.000000,0.000000,0.000000,0.000000,0.000000,0.000000,0.000000,0.000000,0.000000,0.000000,0.000000,0.000000
1779593374.620263,-0.129050,-0.019910,0.306633,-0.023683,0.005214,0.537608,-0.000000,-0.000000,0.000000,0.012783,0.316229,0,0,100,0.000000,0.000000,0.000000,0.000000,0.000000,0.000000,0.000000,0.000000,0.000000,0.000000,0.000000,0.000000
1779593374.624471,-0.129059,-0.019908,0.306632,-0.023720,0.005214,0.537621,-0.000000,0.000000,-0.000000,0.010653,0.316231,0,0,100,0.000000,0.000000,0.000000,0.000000,0.000000,0.000000,0.000000,0.000000,0.000000,0.000000,0.000000,0.000000
1779593374.628235,-0.129052,-0.019905,0.306632,-0.023707,0.005231,0.537602,0.000000,0.000000,-0.000000,0.003196,0.316233,0,0,100,0.000000,0.000000,0.000000,0.000000,0.000000,0.000000,0.000000,0.000000,0.000000,0.000000,0.000000,0.000000
1779593374.630313,-0.129046,-0.019905,0.306632,-0.023697,0.005236,0.537587,0.000000,0.000000,-0.000000,-0.014914,0.316229,0,0,100,-0.129052,-0.019905,0.306632,-0.023707,0.005231,0.537602,0.000000,0.000000,-0.000000,0.001065,0.003196,0.003196
1779593374.634303,-0.129044,-0.019894,0.306632,-0.023725,0.005260,0.537574,-0.000000,0.000000,-0.000000,-0.001065,0.316232,0,0,100,-0.129052,-0.019905,0.306632,-0.023707,0.005231,0.537602,0.000000,0.000000,-0.000000,0.001065,0.003196,0.003196
1779593374.638301,-0.129049,-0.019887,0.306632,-0.023754,0.005264,0.537559,0.000000,0.000000,-0.000000,-0.005326,0.316234,0,0,100,-0.129044,-0.019894,0.306632,-0.023725,0.005260,0.537574,-0.000000,0.000000,-0.000000,-0.011718,-0.007457,-0.001065
1779593374.640254,-0.129053,-0.019891,0.306632,-0.023762,0.005268,0.537552,-0.000000,0.000000,-0.000000,-0.005326,0.316233,0,0,100,-0.129044,-0.019894,0.306632,-0.023725,0.005260,0.537574,-0.000000,0.000000,-0.000000,-0.011718,-0.007457,-0.001065
1779593374.644245,-0.129043,-0.019885,0.306632,-0.023757,0.005270,0.537519,0.000000,0.000000,-0.000000,0.002131,0.316234,0,0,100,-0.129053,-0.019891,0.306632,-0.023762,0.005268,0.537552,-0.000000,0.000000,-0.000000,-0.008522,-0.003196,-0.005326
1779593374.648253,-0.129038,-0.019879,0.306632,-0.023757,0.005296,0.537478,0.000000,-0.000000,0.000000,0.003196,0.316234,0,0,100,-0.129053,-0.019891,0.306632,-0.023762,0.005268,0.537552,-0.000000,0.000000,-0.000000,-0.008522,-0.003196,-0.005326
1779593374.650357,-0.129037,-0.019879,0.306632,-0.023762,0.005315,0.537495,0.000000,-0.000000,0.000000,0.003196,0.316234,0,0,100,-0.129038,-0.019879,0.306632,-0.023757,0.005296,0.537478,0.000000,-0.000000,0.000000,-0.011718,0.007457,0.003196
1779593374.654294,-0.129030,-0.019885,0.306632,-0.023740,0.005292,0.537479,0.000000,-0.000000,0.000000,0.004261,0.316232,0,0,100,-0.129038,-0.019879,0.306632,-0.023757,0.005296,0.537478,0.000000,-0.000000,0.000000,-0.011718,0.007457,0.003196
1779593374.658298,-0.129038,-0.019896,0.306632,-0.023707,0.005275,0.537455,-0.000000,0.000000,-0.000000,-0.010653,0.316232,0,0,100,-0.129030,-0.019885,0.306632,-0.023740,0.005292,0.537480,0.000000,-0.000000,0.000000,0.007457,-0.008522,0.004261
1779593374.660349,-0.129031,-0.019898,0.306632,-0.023707,0.005275,0.537445,0.000000,0.000000,-0.000000,-0.002131,0.316237,0,0,100,-0.129030,-0.019885,0.306632,-0.023740,0.005292,0.537480,0.000000,-0.000000,0.000000,0.007457,-0.008522,0.004261
1779593374.664251,-0.129044,-0.019912,0.306632,-0.023687,0.005240,0.537425,-0.000000,-0.000000,-0.000000,-0.011718,0.316234,0,0,100,-0.129031,-0.019898,0.306632,-0.023707,0.005275,0.537445,0.000000,0.000000,-0.000000,-0.003196,0.002131,-0.002131
1779593374.668272,-0.129037,-0.019906,0.306632,-0.023680,0.005257,0.537392,-0.000000,0.000000,-0.000000,-0.015979,0.316236,0,0,100,-0.129031,-0.019898,0.306632,-0.023707,0.005275,0.537445,0.000000,0.000000,-0.000000,-0.003196,0.002131,-0.002131
1779593374.670270,-0.129033,-0.019896,0.306632,-0.023678,0.005240,0.537392,0.000000,0.000000,-0.000000,0.003196,0.316232,0,0,100,-0.129037,-0.019906,0.306632,-0.023680,0.005257,0.537392,-0.000000,0.000000,-0.000000,-0.005326,0.000000,-0.015979
1779593374.674330,-0.129049,-0.019916,0.306632,-0.023648,0.005205,0.537390,-0.000000,0.000000,-0.000000,-0.006392,0.316229,0,0,100,-0.129037,-0.019906,0.306632,-0.023680,0.005257,0.537392,-0.000000,0.000000,-0.000000,-0.005326,0.000000,-0.015979
1779593374.678260,-0.129051,-0.019921,0.306632,-0.023661,0.005176,0.537406,-0.000000,0.000000,-0.000000,0.006392,0.316232,0,0,100,-0.129049,-0.019916,0.306632,-0.023648,0.005205,0.537390,-0.000000,0.000000,-0.000000,-0.001065,-0.010653,-0.006392
1779593374.680257,-0.129054,-0.019924,0.306632,-0.023657,0.005154,0.537412,-0.000000,-0.000000,0.000000,0.007457,0.316232,0,0,100,-0.129049,-0.019916,0.306632,-0.023648,0.005205,0.537390,-0.000000,0.000000,-0.000000,-0.001065,-0.010653,-0.006392
1779593374.684250,-0.129060,-0.019917,0.306632,-0.023671,0.005168,0.537408,0.000000,0.000000,-0.000000,0.013848,0.316229,0,0,100,-0.129054,-0.019924,0.306632,-0.023657,0.005154,0.537412,-0.000000,-0.000000,0.000000,-0.010653,-0.013848,0.007457
1779593374.688248,-0.129054,-0.019917,0.306632,-0.023668,0.005170,0.537409,0.000000,-0.000000,0.000000,0.005326,0.316238,0,0,100,-0.129054,-0.019924,0.306632,-0.023657,0.005154,0.537412,-0.000000,-0.000000,0.000000,-0.010653,-0.013848,0.007457
1779593374.690268,-0.129053,-0.019922,0.306632,-0.023675,0.005168,0.537423,0.000000,-0.000000,0.000000,0.010653,0.316235,0,0,100,-0.129054,-0.019917,0.306632,-0.023668,0.005170,0.537409,0.000000,-0.000000,0.000000,-0.006392,0.006392,0.005326
1779593374.694272,-0.129054,-0.019917,0.306633,-0.023676,0.005170,0.537453,-0.000000,-0.000000,0.000000,0.006392,0.316234,0,0,100,-0.129054,-0.019917,0.306632,-0.023668,0.005170,0.537409,0.000000,-0.000000,0.000000,-0.006392,0.006392,0.005326
1779593374.698253,-0.129053,-0.019916,0.306632,-0.023662,0.005174,0.537491,0.000000,0.000000,0.000000,0.015979,0.316235,0,0,100,-0.129054,-0.019917,0.306633,-0.023676,0.005170,0.537453,-0.000000,-0.000000,0.000000,-0.020240,0.009587,0.006392
1779593374.700256,-0.129052,-0.019921,0.306632,-0.023655,0.005187,0.537498,-0.000000,-0.000000,0.000000,0.005326,0.316234,0,0,100,-0.129054,-0.019917,0.306633,-0.023676,0.005170,0.537453,-0.000000,-0.000000,0.000000,-0.020240,0.009587,0.006392
1779593374.704345,-0.129049,-0.019913,0.306632,-0.023656,0.005189,0.537525,0.000000,0.000000,0.000000,0.009587,0.316235,0,0,100,-0.129052,-0.019921,0.306632,-0.023655,0.005187,0.537498,-0.000000,-0.000000,0.000000,-0.009587,0.006392,0.005326
1779593374.708324,-0.129049,-0.019910,0.306632,-0.023667,0.005196,0.537571,-0.000000,0.000000,0.000000,0.010653,0.316237,0,0,100,-0.129052,-0.019921,0.306632,-0.023655,0.005187,0.537498,-0.000000,-0.000000,0.000000,-0.009587,0.006392,0.005326
1779593374.710337,-0.129048,-0.019911,0.306632,-0.023676,0.005187,0.537571,-0.000000,-0.000000,0.000000,0.005326,0.316234,0,0,100,-0.129049,-0.019910,0.306632,-0.023667,0.005196,0.537572,-0.000000,0.000000,0.000000,-0.012783,-0.002131,0.010653
1779593374.714220,-0.129058,-0.019914,0.306632,-0.023714,0.005186,0.537603,-0.000000,-0.000000,0.000000,0.013848,0.316235,0,0,100,-0.129049,-0.019910,0.306632,-0.023667,0.005196,0.537572,-0.000000,0.000000,0.000000,-0.012783,-0.002131,0.010653
1779593374.718225,-0.129062,-0.019890,0.306633,-0.023765,0.005192,0.537605,0.000000,0.000000,0.000000,0.002131,0.316236,0,0,100,-0.129058,-0.019914,0.306632,-0.023714,0.005186,0.537603,-0.000000,-0.000000,0.000000,-0.015979,-0.011718,0.013848
1779593374.720225,-0.129067,-0.019894,0.306633,-0.023764,0.005200,0.537614,-0.000000,-0.000000,0.000000,-0.001065,0.316233,0,0,100,-0.129058,-0.019914,0.306632,-0.023714,0.005186,0.537603,-0.000000,-0.000000,0.000000,-0.015979,-0.011718,0.013848
1779593374.724253,-0.129071,-0.019902,0.306633,-0.023761,0.005190,0.537619,-0.000000,-0.000000,0.000000,0.001065,0.316235,0,0,100,-0.129067,-0.019894,0.306633,-0.023764,0.005200,0.537614,-0.000000,-0.000000,0.000000,0.003196,-0.004261,-0.001065
1779593374.728249,-0.129054,-0.019895,0.306633,-0.023752,0.005223,0.537586,0.000000,-0.000000,0.000000,-0.012783,0.316231,0,0,100,-0.129067,-0.019894,0.306633,-0.023764,0.005200,0.537614,-0.000000,-0.000000,0.000000,0.003196,-0.004261,-0.001065
1779593374.730257,-0.129048,-0.019893,0.306633,-0.023742,0.005223,0.537562,0.000000,-0.000000,0.000000,-0.003196,0.316232,0,0,100,-0.129054,-0.019895,0.306633,-0.023752,0.005223,0.537586,0.000000,-0.000000,0.000000,-0.004261,0.003196,-0.012783
1779593374.734380,-0.129046,-0.019899,0.306633,-0.023715,0.005218,0.537531,0.000000,-0.000000,0.000000,-0.010653,0.316234,0,0,100,-0.129054,-0.019895,0.306633,-0.023752,0.005223,0.537586,0.000000,-0.000000,0.000000,-0.004261,0.003196,-0.012783
1779593374.736310,-0.129044,-0.019901,0.306633,-0.023704,0.005219,0.537521,-0.000000,-0.000000,0.000000,-0.001065,0.316234,0,0,100,-0.129046,-0.019899,0.306633,-0.023715,0.005218,0.537531,0.000000,-0.000000,0.000000,0.008522,-0.002131,-0.010653
1779593374.740314,-0.129049,-0.019908,0.306633,-0.023701,0.005221,0.537503,-0.000000,-0.000000,0.000000,-0.007457,0.316231,0,0,100,-0.129046,-0.019899,0.306633,-0.023715,0.005218,0.537531,0.000000,-0.000000,0.000000,0.008522,-0.002131,-0.010653
1779593374.744247,-0.129037,-0.019887,0.306633,-0.023740,0.005267,0.537444,0.000000,-0.000000,0.000000,-0.015979,0.316234,0,0,100,-0.129049,-0.019908,0.306633,-0.023701,0.005221,0.537503,-0.000000,-0.000000,0.000000,-0.004261,-0.007457,-0.007457
1779593374.746233,-0.129038,-0.019884,0.306633,-0.023727,0.005275,0.537410,0.000000,-0.000000,0.000000,-0.018109,0.316234,0,0,100,-0.129049,-0.019908,0.306633,-0.023701,0.005221,0.537503,-0.000000,-0.000000,0.000000,-0.004261,-0.007457,-0.007457
1779593374.750228,-0.129026,-0.019880,0.306633,-0.023747,0.005305,0.537366,0.000000,-0.000000,0.000000,-0.008522,0.316236,0,0,100,-0.129038,-0.019884,0.306633,-0.023727,0.005275,0.537410,0.000000,-0.000000,0.000000,-0.009587,-0.007457,-0.018109
1779593374.754273,-0.129025,-0.019876,0.306633,-0.023758,0.005320,0.537338,0.000000,0.000000,0.000000,-0.006392,0.316236,0,0,100,-0.129038,-0.019884,0.306633,-0.023727,0.005275,0.537410,0.000000,-0.000000,0.000000,-0.009587,-0.007457,-0.018109
1779593374.758193,-0.129017,-0.019878,0.306632,-0.023746,0.005335,0.537305,0.000000,-0.000000,0.000000,-0.015979,0.316230,0,0,100,-0.129025,-0.019876,0.306633,-0.023758,0.005320,0.537338,0.000000,0.000000,0.000000,-0.013848,0.002131,-0.006392
1779593374.760196,-0.129011,-0.019870,0.306632,-0.023749,0.005357,0.537287,0.000000,0.000000,-0.000000,-0.006392,0.316237,0,0,100,-0.129025,-0.019876,0.306633,-0.023758,0.005320,0.537338,0.000000,0.000000,0.000000,-0.013848,0.002131,-0.006392
1779593374.764310,-0.129010,-0.019873,0.306632,-0.023741,0.005355,0.537290,-0.000000,0.000000,-0.000000,0.001065,0.316232,0,0,100,-0.129011,-0.019870,0.306632,-0.023749,0.005357,0.537287,0.000000,0.000000,-0.000000,-0.018109,0.007457,-0.006392
1779593374.768294,-0.129018,-0.019873,0.306632,-0.023730,0.005351,0.537283,-0.000000,0.000000,-0.000000,0.004261,0.316227,0,0,100,-0.129011,-0.019870,0.306632,-0.023749,0.005357,0.537287,0.000000,0.000000,-0.000000,-0.018109,0.007457,-0.006392
1779593374.770325,-0.129015,-0.019870,0.306632,-0.023734,0.005353,0.537290,0.000000,0.000000,-0.000000,0.007457,0.316229,0,0,100,-0.129018,-0.019873,0.306632,-0.023730,0.005351,0.537283,-0.000000,0.000000,-0.000000,-0.001065,-0.004261,0.004261
1779593374.774243,-0.129015,-0.019867,0.306632,-0.023766,0.005359,0.537309,-0.000000,0.000000,0.000000,0.002131,0.316231,0,0,100,-0.129018,-0.019873,0.306632,-0.023730,0.005351,0.537283,-0.000000,0.000000,-0.000000,-0.001065,-0.004261,0.004261
1779593374.778251,-0.129017,-0.019863,0.306633,-0.023788,0.005364,0.537325,-0.000000,0.000000,0.000000,0.006392,0.316231,0,0,100,-0.129015,-0.019867,0.306632,-0.023766,0.005359,0.537309,-0.000000,0.000000,0.000000,-0.019175,-0.008522,0.002131
1779593374.780282,-0.129011,-0.019865,0.306633,-0.023787,0.005361,0.537351,0.000000,-0.000000,0.000000,0.013848,0.316236,0,0,100,-0.129015,-0.019867,0.306632,-0.023766,0.005359,0.537309,-0.000000,0.000000,0.000000,-0.019175,-0.008522,0.002131
1779593374.784317,-0.129015,-0.019860,0.306633,-0.023784,0.005375,0.537382,0.000000,-0.000000,0.000000,0.000000,0.316231,0,0,100,-0.129011,-0.019865,0.306633,-0.023787,0.005361,0.537351,0.000000,-0.000000,0.000000,-0.018109,0.001065,0.013848
1779593374.788301,-0.129014,-0.019871,0.306633,-0.023760,0.005361,0.537414,0.000000,-0.000000,0.000000,0.018109,0.316235,0,0,100,-0.129011,-0.019865,0.306633,-0.023787,0.005361,0.537351,0.000000,-0.000000,0.000000,-0.018109,0.001065,0.013848
1779593374.790329,-0.129019,-0.019877,0.306633,-0.023736,0.005346,0.537434,-0.000000,-0.000000,0.000000,0.020240,0.316231,0,0,100,-0.129014,-0.019871,0.306633,-0.023760,0.005361,0.537414,0.000000,-0.000000,0.000000,-0.007457,0.000000,0.018109
1779593374.794246,-0.129018,-0.019876,0.306633,-0.023739,0.005347,0.537471,0.000000,0.000000,0.000000,0.010653,0.316229,0,0,100,-0.129014,-0.019871,0.306633,-0.023760,0.005361,0.537414,0.000000,-0.000000,0.000000,-0.007457,0.000000,0.018109
1779593374.798255,-0.129013,-0.019876,0.306633,-0.023729,0.005330,0.537514,0.000000,-0.000000,0.000000,0.004261,0.316232,0,0,100,-0.129018,-0.019876,0.306633,-0.023739,0.005347,0.537471,0.000000,0.000000,0.000000,-0.009587,-0.004261,0.010653
1779593374.800286,-0.129021,-0.019881,0.306633,-0.023729,0.005324,0.537517,-0.000000,-0.000000,0.000000,0.003196,0.316234,0,0,100,-0.129018,-0.019876,0.306633,-0.023739,0.005347,0.537471,0.000000,0.000000,0.000000,-0.009587,-0.004261,0.010653
1779593374.804276,-0.129023,-0.019887,0.306632,-0.023721,0.005333,0.537520,-0.000000,-0.000000,-0.000000,0.004261,0.316229,0,0,100,-0.129021,-0.019881,0.306633,-0.023729,0.005324,0.537517,-0.000000,-0.000000,0.000000,-0.009587,-0.008522,0.003196
1779593374.808270,-0.129015,-0.019878,0.306632,-0.023726,0.005348,0.537535,0.000000,-0.000000,-0.000000,0.005326,0.316231,0,0,100,-0.129021,-0.019881,0.306633,-0.023729,0.005324,0.537517,-0.000000,-0.000000,0.000000,-0.009587,-0.008522,0.003196
1779593374.812269,-0.129013,-0.019878,0.306633,-0.023738,0.005343,0.537538,0.000000,-0.000000,0.000000,0.002131,0.316236,0,0,100,-0.129015,-0.019878,0.306632,-0.023726,0.005348,0.537536,0.000000,-0.000000,-0.000000,-0.010653,-0.003196,0.005326
1779593374.814267,-0.129009,-0.019876,0.306633,-0.023746,0.005358,0.537536,0.000000,-0.000000,0.000000,0.003196,0.316236,0,0,100,-0.129015,-0.019878,0.306632,-0.023726,0.005348,0.537536,0.000000,-0.000000,-0.000000,-0.010653,-0.003196,0.005326
1779593374.818262,-0.129004,-0.019868,0.306633,-0.023745,0.005380,0.537537,0.000000,-0.000000,0.000000,0.007457,0.316236,0,0,100,-0.129009,-0.019876,0.306633,-0.023746,0.005358,0.537536,0.000000,-0.000000,0.000000,-0.015979,0.008522,0.003196
1779593374.820203,-0.129002,-0.019861,0.306633,-0.023745,0.005384,0.537524,0.000000,0.000000,0.000000,-0.005326,0.316234,0,0,100,-0.129002,-0.019861,0.306633,-0.023745,0.005384,0.537524,0.000000,0.000000,0.000000,-0.008522,0.004261,-0.005326
1779593374.824247,-0.129007,-0.019864,0.306633,-0.023744,0.005386,0.537502,-0.000000,-0.000000,0.000000,-0.008522,0.316234,0,0,100,-0.129002,-0.019861,0.306633,-0.023745,0.005384,0.537524,0.000000,0.000000,0.000000,-0.008522,0.004261,-0.005326
1779593374.828235,-0.129007,-0.019864,0.306633,-0.023746,0.005394,0.537479,-0.000000,-0.000000,0.000000,-0.010653,0.316234,0,0,100,-0.129002,-0.019861,0.306633,-0.023745,0.005384,0.537524,0.000000,0.000000,0.000000,-0.008522,0.004261,-0.005326
1779593374.830258,-0.129003,-0.019867,0.306633,-0.023738,0.005385,0.537461,0.000000,-0.000000,0.000000,-0.017044,0.316236,0,0,100,-0.129007,-0.019864,0.306633,-0.023746,0.005394,0.537479,-0.000000,-0.000000,0.000000,-0.010653,-0.005326,-0.010653
1779593374.834250,-0.129009,-0.019861,0.306633,-0.023757,0.005377,0.537424,-0.000000,-0.000000,0.000000,-0.005326,0.316236,0,0,100,-0.129007,-0.019864,0.306633,-0.023746,0.005394,0.537479,-0.000000,-0.000000,0.000000,-0.010653,-0.005326,-0.010653
1779593374.838250,-0.129013,-0.019855,0.306633,-0.023781,0.005378,0.537401,-0.000000,0.000000,0.000000,-0.005326,0.316232,0,0,100,-0.129009,-0.019861,0.306633,-0.023757,0.005377,0.537424,-0.000000,-0.000000,0.000000,-0.005326,0.000000,-0.005326
1779593374.840250,-0.129019,-0.019859,0.306633,-0.023771,0.005357,0.537403,-0.000000,-0.000000,0.000000,0.004261,0.316232,0,0,100,-0.129009,-0.019861,0.306633,-0.023757,0.005377,0.537424,-0.000000,-0.000000,0.000000,-0.005326,0.000000,-0.005326
1779593374.844253,-0.129008,-0.019855,0.306633,-0.023788,0.005392,0.537402,0.000000,-0.000000,0.000000,0.009587,0.316232,0,0,100,-0.129019,-0.019859,0.306633,-0.023771,0.005357,0.537403,-0.000000,-0.000000,0.000000,-0.003196,-0.015979,0.004261
1779593374.848248,-0.129007,-0.019860,0.306633,-0.023778,0.005391,0.537405,0.000000,-0.000000,0.000000,0.006392,0.316234,0,0,100,-0.129019,-0.019859,0.306633,-0.023771,0.005357,0.537403,-0.000000,-0.000000,0.000000,-0.003196,-0.015979,0.004261
1779593374.850252,-0.129010,-0.019859,0.306633,-0.023778,0.005403,0.537393,-0.000000,0.000000,-0.000000,0.001065,0.316236,0,0,100,-0.129007,-0.019860,0.306633,-0.023778,0.005391,0.537405,0.000000,-0.000000,0.000000,-0.009587,0.007457,0.006392
1779593374.854285,-0.129014,-0.019862,0.306632,-0.023761,0.005405,0.537396,0.000000,0.000000,-0.000000,0.009587,0.316231,0,0,100,-0.129007,-0.019860,0.306633,-0.023778,0.005391,0.537405,0.000000,-0.000000,0.000000,-0.009587,0.007457,0.006392
1779593374.858351,-0.129010,-0.019873,0.306632,-0.023738,0.005392,0.537375,-0.000000,-0.000000,-0.000000,-0.005326,0.316234,0,0,100,-0.129014,-0.019862,0.306632,-0.023761,0.005405,0.537396,0.000000,0.000000,-0.000000,-0.010653,-0.003196,0.009587
1779593374.860299,-0.129010,-0.019875,0.306632,-0.023721,0.005400,0.537381,-0.000000,0.000000,-0.000000,0.004261,0.316234,0,0,100,-0.129014,-0.019862,0.306632,-0.023761,0.005405,0.537396,0.000000,0.000000,-0.000000,-0.010653,-0.003196,0.009587
1779593374.864343,-0.129008,-0.019872,0.306632,-0.023740,0.005390,0.537378,0.000000,0.000000,-0.000000,0.004261,0.316229,0,0,100,-0.129010,-0.019875,0.306632,-0.023721,0.005400,0.537381,-0.000000,0.000000,-0.000000,-0.001065,0.006392,0.004261
1779593374.868360,-0.129013,-0.019886,0.306632,-0.023716,0.005382,0.537390,-0.000000,-0.000000,-0.000000,-0.001065,0.316233,0,0,100,-0.129010,-0.019875,0.306632,-0.023721,0.005400,0.537381,-0.000000,0.000000,-0.000000,-0.001065,0.006392,0.004261
1779593374.870298,-0.129018,-0.019886,0.306633,-0.023709,0.005373,0.537406,-0.000000,-0.000000,0.000000,0.006392,0.316233,0,0,100,-0.129013,-0.019886,0.306632,-0.023716,0.005382,0.537390,-0.000000,-0.000000,-0.000000,0.001065,-0.003196,-0.001065
1779593374.874248,-0.129022,-0.019885,0.306633,-0.023720,0.005348,0.537442,-0.000000,-0.000000,0.000000,0.008522,0.316235,0,0,100,-0.129013,-0.019886,0.306632,-0.023716,0.005382,0.537390,-0.000000,-0.000000,-0.000000,0.001065,-0.003196,-0.001065
1779593374.878253,-0.129026,-0.019893,0.306633,-0.023712,0.005341,0.537492,-0.000000,-0.000000,0.000000,0.005326,0.316235,0,0,100,-0.129022,-0.019885,0.306633,-0.023720,0.005348,0.537442,-0.000000,-0.000000,0.000000,-0.007457,-0.018109,0.008522
1779593374.880255,-0.129029,-0.019893,0.306633,-0.023702,0.005344,0.537533,-0.000000,-0.000000,0.000000,0.009587,0.316230,0,0,100,-0.129029,-0.019893,0.306633,-0.023702,0.005344,0.537533,-0.000000,-0.000000,0.000000,-0.009587,-0.005326,0.009587
1779593374.884252,-0.129024,-0.019889,0.306633,-0.023702,0.005344,0.537567,-0.000000,-0.000000,0.000000,-0.001065,0.316233,0,0,100,-0.129029,-0.019893,0.306633,-0.023702,0.005344,0.537533,-0.000000,-0.000000,0.000000,-0.009587,-0.005326,0.009587
1779593374.888249,-0.129020,-0.019883,0.306633,-0.023714,0.005350,0.537583,0.000000,-0.000000,0.000000,0.001065,0.316233,0,0,100,-0.129020,-0.019883,0.306633,-0.023714,0.005350,0.537583,0.000000,-0.000000,0.000000,-0.014914,0.011718,0.001065
1779593374.890254,-0.129022,-0.019886,0.306633,-0.023716,0.005361,0.537604,-0.000000,-0.000000,0.000000,0.014914,0.316233,0,0,100,-0.129020,-0.019883,0.306633,-0.023714,0.005350,0.537583,0.000000,-0.000000,0.000000,-0.014914,0.011718,0.001065
1779593374.894248,-0.129015,-0.019888,0.306633,-0.023700,0.005353,0.537619,0.000000,-0.000000,0.000000,0.004261,0.316233,0,0,100,-0.129020,-0.019883,0.306633,-0.023714,0.005350,0.537583,0.000000,-0.000000,0.000000,-0.014914,0.011718,0.001065
1779593374.898250,-0.129026,-0.019877,0.306633,-0.023719,0.005370,0.537638,-0.000000,-0.000000,0.000000,0.002131,0.316230,0,0,100,-0.129015,-0.019888,0.306633,-0.023700,0.005353,0.537619,0.000000,-0.000000,0.000000,-0.008522,-0.003196,0.004261
1779593374.900247,-0.129012,-0.019885,0.306634,-0.023693,0.005386,0.537637,0.000000,-0.000000,0.000000,0.002131,0.316231,0,0,100,-0.129012,-0.019885,0.306634,-0.023693,0.005386,0.537637,0.000000,-0.000000,0.000000,0.006392,0.010653,0.002131
1779593374.904323,-0.129020,-0.019879,0.306634,-0.023719,0.005389,0.537623,-0.000000,-0.000000,0.000000,0.004261,0.316235,0,0,100,-0.129012,-0.019885,0.306634,-0.023693,0.005386,0.537637,0.000000,-0.000000,0.000000,0.006392,0.010653,0.002131
1779593374.908344,-0.129020,-0.019883,0.306634,-0.023705,0.005385,0.537612,-0.000000,-0.000000,0.000000,-0.011718,0.316232,0,0,100,-0.129012,-0.019885,0.306634,-0.023693,0.005386,0.537637,0.000000,-0.000000,0.000000,0.006392,0.010653,0.002131
1779593374.910379,-0.129013,-0.019888,0.306634,-0.023694,0.005384,0.537588,-0.000000,-0.000000,0.000000,-0.008522,0.316230,0,0,100,-0.129020,-0.019883,0.306634,-0.023705,0.005385,0.537612,-0.000000,-0.000000,0.000000,0.001065,-0.010653,-0.011718
1779593374.914251,-0.129017,-0.019889,0.306634,-0.023676,0.005369,0.537564,-0.000000,-0.000000,0.000000,-0.006392,0.316229,0,0,100,-0.129020,-0.019883,0.306634,-0.023705,0.005385,0.537612,-0.000000,-0.000000,0.000000,0.001065,-0.010653,-0.011718
1779593374.918246,-0.129008,-0.019890,0.306634,-0.023666,0.005387,0.537563,0.000000,-0.000000,0.000000,0.002131,0.316234,0,0,100,-0.129017,-0.019889,0.306634,-0.023676,0.005369,0.537564,-0.000000,-0.000000,0.000000,-0.011718,-0.005326,-0.006392
1779593374.922239,-0.129012,-0.019894,0.306634,-0.023668,0.005378,0.537534,-0.000000,-0.000000,0.000000,-0.015979,0.316228,0,0,100,-0.129017,-0.019889,0.306634,-0.023676,0.005369,0.537564,-0.000000,-0.000000,0.000000,-0.011718,-0.005326,-0.006392
1779593374.924304,-0.129013,-0.019900,0.306634,-0.023662,0.005367,0.537500,-0.000000,-0.000000,0.000000,-0.022371,0.316231,0,0,100,-0.129012,-0.019894,0.306634,-0.023668,0.005378,0.537534,-0.000000,-0.000000,0.000000,-0.002131,-0.008522,-0.015979
1779593374.928296,-0.129009,-0.019903,0.306634,-0.023636,0.005361,0.537484,-0.000000,-0.000000,0.000000,0.001065,0.316233,0,0,100,-0.129012,-0.019894,0.306634,-0.023668,0.005378,0.537534,-0.000000,-0.000000,0.000000,-0.002131,-0.008522,-0.015979
1779593374.930329,-0.129018,-0.019907,0.306634,-0.023643,0.005347,0.537455,-0.000000,-0.000000,0.000000,-0.015979,0.316228,0,0,100,-0.129009,-0.019903,0.306634,-0.023636,0.005361,0.537485,-0.000000,-0.000000,0.000000,0.002131,-0.002131,0.001065
1779593374.934239,-0.129012,-0.019905,0.306633,-0.023653,0.005347,0.537416,-0.000000,-0.000000,0.000000,-0.011718,0.316230,0,0,100,-0.129009,-0.019903,0.306634,-0.023636,0.005361,0.537485,-0.000000,-0.000000,0.000000,0.002131,-0.002131,0.001065
1779593374.938251,-0.129017,-0.019905,0.306633,-0.023647,0.005324,0.537417,-0.000000,-0.000000,0.000000,0.012783,0.316235,0,0,100,-0.129012,-0.019905,0.306633,-0.023653,0.005347,0.537417,-0.000000,-0.000000,0.000000,-0.001065,-0.009587,-0.011718
1779593374.940250,-0.129020,-0.019909,0.306633,-0.023641,0.005319,0.537411,-0.000000,-0.000000,0.000000,-0.004261,0.316233,0,0,100,-0.129020,-0.019909,0.306633,-0.023641,0.005319,0.537411,-0.000000,-0.000000,0.000000,-0.007457,-0.006392,-0.004261
1779593374.944251,-0.129022,-0.019909,0.306633,-0.023650,0.005305,0.537383,-0.000000,0.000000,0.000000,0.004261,0.316235,0,0,100,-0.129020,-0.019909,0.306633,-0.023641,0.005319,0.537411,-0.000000,-0.000000,0.000000,-0.007457,-0.006392,-0.004261
1779593374.948223,-0.129023,-0.019906,0.306633,-0.023669,0.005290,0.537373,-0.000000,0.000000,-0.000000,0.008522,0.316233,0,0,100,-0.129020,-0.019909,0.306633,-0.023641,0.005319,0.537411,-0.000000,-0.000000,0.000000,-0.007457,-0.006392,-0.004261
1779593374.950219,-0.129024,-0.019904,0.306633,-0.023674,0.005293,0.537368,-0.000000,0.000000,-0.000000,-0.009587,0.316234,0,0,100,-0.129023,-0.019906,0.306633,-0.023669,0.005290,0.537373,-0.000000,0.000000,-0.000000,-0.004261,-0.008522,0.008522
1779593374.954248,-0.129025,-0.019903,0.306633,-0.023671,0.005296,0.537419,0.000000,0.000000,-0.000000,0.019175,0.316231,0,0,100,-0.129023,-0.019906,0.306633,-0.023669,0.005290,0.537373,-0.000000,0.000000,-0.000000,-0.004261,-0.008522,0.008522
1779593374.958249,-0.129029,-0.019906,0.306633,-0.023679,0.005284,0.537432,-0.000000,0.000000,-0.000000,0.012783,0.316238,0,0,100,-0.129025,-0.019903,0.306633,-0.023671,0.005296,0.537419,0.000000,0.000000,-0.000000,0.002131,-0.006392,0.019175
1779593374.960246,-0.129025,-0.019903,0.306633,-0.023687,0.005288,0.537449,0.000000,0.000000,-0.000000,0.011718,0.316231,0,0,100,-0.129025,-0.019903,0.306633,-0.023687,0.005288,0.537449,0.000000,0.000000,-0.000000,-0.012783,0.001065,0.011718
1779593374.964298,-0.129027,-0.019912,0.306633,-0.023689,0.005275,0.537471,-0.000000,-0.000000,-0.000000,0.018109,0.316233,0,0,100,-0.129025,-0.019903,0.306633,-0.023687,0.005288,0.537449,0.000000,0.000000,-0.000000,-0.012783,0.001065,0.011718
1779593374.968294,-0.129027,-0.019903,0.306633,-0.023677,0.005295,0.537494,0.000000,0.000000,-0.000000,0.004261,0.316233,0,0,100,-0.129025,-0.019903,0.306633,-0.023687,0.005288,0.537449,0.000000,0.000000,-0.000000,-0.012783,0.001065,0.011718
1779593374.970332,-0.129023,-0.019907,0.306632,-0.023674,0.005294,0.537515,0.000000,0.000000,-0.000000,0.008522,0.316234,0,0,100,-0.129027,-0.019903,0.306633,-0.023677,0.005295,0.537495,0.000000,0.000000,-0.000000,-0.007457,0.003196,0.004261
1779593374.974247,-0.129019,-0.019905,0.306632,-0.023666,0.005293,0.537566,0.000000,0.000000,-0.000000,0.026632,0.316229,0,0,100,-0.129027,-0.019903,0.306633,-0.023677,0.005295,0.537495,0.000000,0.000000,-0.000000,-0.007457,0.003196,0.004261
1779593374.978245,-0.129015,-0.019897,0.306632,-0.023674,0.005317,0.537586,0.000000,0.000000,-0.000000,-0.002131,0.316231,0,0,100,-0.129019,-0.019905,0.306632,-0.023666,0.005293,0.537566,0.000000,0.000000,-0.000000,-0.007457,0.004261,0.026632
1779593374.980240,-0.129010,-0.019891,0.306632,-0.023689,0.005328,0.537611,0.000000,0.000000,-0.000000,0.012783,0.316236,0,0,100,-0.129019,-0.019905,0.306632,-0.023666,0.005293,0.537566,0.000000,0.000000,-0.000000,-0.007457,0.004261,0.026632
1779593374.984331,-0.129008,-0.019896,0.306632,-0.023685,0.005343,0.537652,0.000000,0.000000,-0.000000,0.011718,0.316227,0,0,100,-0.129010,-0.019891,0.306632,-0.023689,0.005328,0.537611,0.000000,0.000000,-0.000000,-0.019175,0.005326,0.012783
1779593374.988349,-0.129008,-0.019888,0.306632,-0.023697,0.005335,0.537649,0.000000,0.000000,-0.000000,-0.002131,0.316234,0,0,100,-0.129010,-0.019891,0.306632,-0.023689,0.005328,0.537611,0.000000,0.000000,-0.000000,-0.019175,0.005326,0.012783
1779593374.990293,-0.129017,-0.019888,0.306632,-0.023689,0.005326,0.537657,-0.000000,0.000000,-0.000000,0.006392,0.316231,0,0,100,-0.129008,-0.019888,0.306632,-0.023697,0.005335,0.537649,0.000000,0.000000,-0.000000,-0.017044,-0.006392,-0.002131
1779593374.994253,-0.129009,-0.019889,0.306633,-0.023686,0.005335,0.537659,0.000000,0.000000,-0.000000,0.000000,0.316236,0,0,100,-0.129008,-0.019888,0.306632,-0.023697,0.005335,0.537649,0.000000,0.000000,-0.000000,-0.017044,-0.006392,-0.002131
1779593374.998249,-0.129005,-0.019892,0.306633,-0.023677,0.005350,0.537651,0.000000,0.000000,-0.000000,0.002131,0.316236,0,0,100,-0.129009,-0.019889,0.306633,-0.023686,0.005335,0.537659,0.000000,0.000000,-0.000000,-0.008522,-0.001065,0.000000
1779593375.000246,-0.128994,-0.019889,0.306633,-0.023668,0.005371,0.537628,0.000000,-0.000000,0.000000,-0.002131,0.316238,0,0,100,-0.128994,-0.019889,0.306633,-0.023668,0.005371,0.537628,0.000000,-0.000000,0.000000,-0.014914,0.000000,-0.002131
1779593375.004384,-0.129000,-0.019898,0.306633,-0.023668,0.005344,0.537598,-0.000000,-0.000000,0.000000,-0.005326,0.316236,0,0,100,-0.128994,-0.019889,0.306633,-0.023668,0.005371,0.537628,0.000000,-0.000000,0.000000,-0.014914,0.000000,-0.002131
1779593375.008348,-0.129002,-0.019886,0.306633,-0.023683,0.005350,0.537558,0.000000,0.000000,0.000000,-0.005326,0.316232,0,0,100,-0.129002,-0.019886,0.306633,-0.023683,0.005350,0.537558,0.000000,0.000000,0.000000,-0.025566,-0.004261,-0.005326
1779593375.010383,-0.129002,-0.019888,0.306633,-0.023700,0.005343,0.537536,-0.000000,0.000000,-0.000000,-0.008522,0.316231,0,0,100,-0.129002,-0.019886,0.306633,-0.023683,0.005350,0.537558,0.000000,0.000000,0.000000,-0.025566,-0.004261,-0.005326
1779593375.014347,-0.129015,-0.019888,0.306633,-0.023697,0.005320,0.537496,-0.000000,0.000000,-0.000000,-0.017044,0.316232,0,0,100,-0.129002,-0.019886,0.306633,-0.023683,0.005350,0.537558,0.000000,0.000000,0.000000,-0.025566,-0.004261,-0.005326
1779593375.016238,-0.129013,-0.019894,0.306633,-0.023701,0.005322,0.537477,-0.000000,-0.000000,-0.000000,-0.013848,0.316236,0,0,100,-0.129015,-0.019888,0.306633,-0.023697,0.005320,0.537496,-0.000000,0.000000,-0.000000,-0.006392,-0.005326,-0.017044
1779593375.020230,-0.129013,-0.019892,0.306632,-0.023698,0.005310,0.537448,0.000000,0.000000,-0.000000,0.000000,0.316234,0,0,100,-0.129015,-0.019888,0.306633,-0.023697,0.005320,0.537496,-0.000000,0.000000,-0.000000,-0.006392,-0.005326,-0.017044
1779593375.024280,-0.129008,-0.019894,0.306632,-0.023693,0.005312,0.537414,0.000000,0.000000,-0.000000,0.000000,0.316234,0,0,100,-0.129013,-0.019892,0.306632,-0.023698,0.005310,0.537448,0.000000,0.000000,-0.000000,-0.006392,0.003196,0.000000
1779593375.028221,-0.129012,-0.019890,0.306632,-0.023702,0.005318,0.537385,0.000000,0.000000,-0.000000,0.002131,0.316232,0,0,100,-0.129013,-0.019892,0.306632,-0.023698,0.005310,0.537448,0.000000,0.000000,-0.000000,-0.006392,0.003196,0.000000
1779593375.030207,-0.129012,-0.019895,0.306632,-0.023695,0.005304,0.537379,0.000000,0.000000,-0.000000,-0.001065,0.316236,0,0,100,-0.129012,-0.019890,0.306632,-0.023702,0.005318,0.537386,0.000000,0.000000,-0.000000,-0.018109,-0.004261,0.002131
1779593375.034197,-0.129016,-0.019889,0.306632,-0.023695,0.005317,0.537376,0.000000,0.000000,-0.000000,-0.001065,0.316231,0,0,100,-0.129012,-0.019890,0.306632,-0.023702,0.005318,0.537386,0.000000,0.000000,-0.000000,-0.018109,-0.004261,0.002131
1779593375.038284,-0.129010,-0.019889,0.306632,-0.023695,0.005334,0.537379,0.000000,0.000000,-0.000000,-0.004261,0.316230,0,0,100,-0.129016,-0.019889,0.306632,-0.023695,0.005317,0.537377,0.000000,0.000000,-0.000000,-0.001065,-0.012783,-0.001065
1779593375.040276,-0.129010,-0.019885,0.306632,-0.023699,0.005346,0.537382,0.000000,0.000000,-0.000000,0.001065,0.316232,0,0,100,-0.129010,-0.019885,0.306632,-0.023699,0.005346,0.537382,0.000000,0.000000,-0.000000,-0.013848,0.002131,0.001065
1779593375.044300,-0.129004,-0.019884,0.306632,-0.023712,0.005352,0.537386,0.000000,0.000000,-0.000000,-0.005326,0.316234,0,0,100,-0.129010,-0.019885,0.306632,-0.023699,0.005346,0.537382,0.000000,0.000000,-0.000000,-0.013848,0.002131,0.001065
1779593375.048246,-0.129014,-0.019882,0.306632,-0.023721,0.005336,0.537378,0.000000,0.000000,-0.000000,-0.009587,0.316236,0,0,100,-0.129014,-0.019882,0.306632,-0.023721,0.005336,0.537379,0.000000,0.000000,-0.000000,-0.006392,-0.003196,-0.009587
1779593375.050251,-0.129023,-0.019880,0.306631,-0.023725,0.005342,0.537388,-0.000000,0.000000,-0.000001,0.009587,0.316231,0,0,100,-0.129014,-0.019882,0.306632,-0.023721,0.005336,0.537379,0.000000,0.000000,-0.000000,-0.006392,-0.003196,-0.009587
1779593375.054247,-0.129015,-0.019877,0.306631,-0.023736,0.005342,0.537441,0.000000,0.000000,-0.000000,0.017044,0.316236,0,0,100,-0.129015,-0.019877,0.306631,-0.023736,0.005342,0.537441,0.000000,0.000000,-0.000000,-0.023436,0.007457,0.017044
1779593375.058327,-0.129018,-0.019883,0.306631,-0.023739,0.005328,0.537476,-0.000000,0.000000,-0.000000,0.005326,0.316234,0,0,100,-0.129015,-0.019877,0.306631,-0.023736,0.005342,0.537441,0.000000,0.000000,-0.000000,-0.023436,0.007457,0.017044
1779593375.060294,-0.129017,-0.019875,0.306631,-0.023738,0.005344,0.537505,0.000000,0.000000,-0.000001,0.018109,0.316234,0,0,100,-0.129015,-0.019877,0.306631,-0.023736,0.005342,0.537441,0.000000,0.000000,-0.000000,-0.023436,0.007457,0.017044
1779593375.064512,-0.129019,-0.019881,0.306631,-0.023741,0.005333,0.537543,-0.000000,0.000000,-0.000000,0.013848,0.316234,0,0,100,-0.129017,-0.019875,0.306631,-0.023738,0.005344,0.537505,0.000000,0.000000,-0.000001,-0.009587,0.001065,0.018109
1779593375.068249,-0.129013,-0.019875,0.306631,-0.023739,0.005338,0.537587,0.000000,0.000000,-0.000000,0.015979,0.316239,0,0,100,-0.129017,-0.019875,0.306631,-0.023738,0.005344,0.537505,0.000000,0.000000,-0.000001,-0.009587,0.001065,0.018109
1779593375.070251,-0.129025,-0.019873,0.306631,-0.023751,0.005325,0.537588,-0.000000,0.000000,-0.000000,0.001065,0.316232,0,0,100,-0.129013,-0.019875,0.306631,-0.023739,0.005338,0.537587,0.000000,0.000000,-0.000000,-0.005326,-0.007457,0.015979
1779593375.074260,-0.129033,-0.019864,0.306632,-0.023790,0.005308,0.537631,-0.000000,0.000000,-0.000000,0.009587,0.316236,0,0,100,-0.129013,-0.019875,0.306631,-0.023739,0.005338,0.537587,0.000000,0.000000,-0.000000,-0.005326,-0.007457,0.015979
1779593375.078261,-0.129028,-0.019855,0.306632,-0.023799,0.005338,0.537648,0.000000,-0.000000,0.000000,0.003196,0.316236,0,0,100,-0.129033,-0.019864,0.306632,-0.023790,0.005308,0.537631,-0.000000,0.000000,-0.000000,-0.026632,-0.019175,0.009587
1779593375.080265,-0.129027,-0.019849,0.306632,-0.023822,0.005349,0.537647,0.000000,0.000000,0.000000,-0.001065,0.316232,0,0,100,-0.129027,-0.019849,0.306632,-0.023822,0.005349,0.537648,0.000000,0.000000,0.000000,-0.021305,0.004261,-0.001065
1779593375.084697,-0.129025,-0.019850,0.306632,-0.023814,0.005354,0.537662,-0.000000,-0.000000,0.000000,-0.005326,0.316232,0,0,100,-0.129027,-0.019849,0.306632,-0.023822,0.005349,0.537648,0.000000,0.000000,0.000000,-0.021305,0.004261,-0.001065
1779593375.088232,-0.129023,-0.019855,0.306632,-0.023796,0.005357,0.537669,-0.000000,-0.000000,0.000000,-0.001065,0.316232,0,0,100,-0.129027,-0.019849,0.306632,-0.023822,0.005349,0.537648,0.000000,0.000000,0.000000,-0.021305,0.004261,-0.001065
1779593375.090231,-0.129019,-0.019853,0.306632,-0.023790,0.005362,0.537670,0.000000,-0.000000,0.000000,-0.002131,0.316234,0,0,100,-0.129023,-0.019855,0.306632,-0.023796,0.005357,0.537669,-0.000000,-0.000000,0.000000,-0.001065,-0.002131,-0.001065
1779593375.094220,-0.129009,-0.019854,0.306632,-0.023785,0.005375,0.537680,0.000000,-0.000000,0.000000,0.008522,0.316236,0,0,100,-0.129023,-0.019855,0.306632,-0.023796,0.005357,0.537669,-0.000000,-0.000000,0.000000,-0.001065,-0.002131,-0.001065
1779593375.098325,-0.129000,-0.019845,0.306632,-0.023795,0.005419,0.537667,0.000000,-0.000000,0.000000,-0.003196,0.316234,0,0,100,-0.129009,-0.019854,0.306632,-0.023785,0.005375,0.537680,0.000000,-0.000000,0.000000,-0.007457,0.001065,0.008522
1779593375.100287,-0.129002,-0.019849,0.306633,-0.023778,0.005404,0.537654,-0.000000,-0.000000,0.000000,-0.008522,0.316238,0,0,100,-0.129009,-0.019854,0.306632,-0.023785,0.005375,0.537680,0.000000,-0.000000,0.000000,-0.007457,0.001065,0.008522
1779593375.104338,-0.129000,-0.019849,0.306633,-0.023777,0.005411,0.537630,-0.000000,-0.000000,0.000000,-0.011718,0.316236,0,0,100,-0.129002,-0.019849,0.306633,-0.023778,0.005404,0.537655,-0.000000,-0.000000,0.000000,0.005326,-0.007457,-0.008522
1779593375.108220,-0.129011,-0.019852,0.306633,-0.023787,0.005391,0.537584,-0.000000,-0.000000,0.000000,-0.004261,0.316233,0,0,100,-0.129002,-0.019849,0.306633,-0.023778,0.005404,0.537655,-0.000000,-0.000000,0.000000,0.005326,-0.007457,-0.008522
1779593375.110214,-0.129012,-0.019848,0.306633,-0.023791,0.005388,0.537584,-0.000000,-0.000000,0.000000,0.006392,0.316234,0,0,100,-0.129011,-0.019852,0.306633,-0.023787,0.005391,0.537584,-0.000000,-0.000000,0.000000,-0.007457,-0.017044,-0.004261
1779593375.115025,-0.128997,-0.019858,0.306633,-0.023768,0.005411,0.537563,0.000000,-0.000000,0.000000,0.006392,0.316236,0,0,100,-0.129011,-0.019852,0.306633,-0.023787,0.005391,0.537584,-0.000000,-0.000000,0.000000,-0.007457,-0.017044,-0.004261
1779593375.118247,-0.129004,-0.019858,0.306633,-0.023772,0.005417,0.537568,-0.000000,-0.000000,0.000000,0.006392,0.316236,0,0,100,-0.128997,-0.019858,0.306633,-0.023768,0.005411,0.537563,0.000000,-0.000000,0.000000,-0.017044,0.011718,0.006392
1779593375.120245,-0.129004,-0.019862,0.306632,-0.023760,0.005402,0.537562,-0.000000,-0.000000,0.000000,-0.001065,0.316234,0,0,100,-0.128997,-0.019858,0.306633,-0.023768,0.005411,0.537563,0.000000,-0.000000,0.000000,-0.017044,0.011718,0.006392
1779593375.124248,-0.129013,-0.019860,0.306632,-0.023772,0.005388,0.537553,-0.000000,0.000000,0.000000,-0.010653,0.316232,0,0,100,-0.129004,-0.019862,0.306632,-0.023760,0.005402,0.537562,-0.000000,-0.000000,0.000000,-0.007457,-0.008522,-0.001065
1779593375.128251,-0.129006,-0.019859,0.306633,-0.023772,0.005397,0.537570,-0.000000,-0.000000,0.000000,0.006392,0.316239,0,0,100,-0.129004,-0.019862,0.306632,-0.023760,0.005402,0.537562,-0.000000,-0.000000,0.000000,-0.007457,-0.008522,-0.001065
1779593375.130254,-0.129003,-0.019859,0.306632,-0.023767,0.005401,0.537576,0.000000,-0.000000,0.000000,0.002131,0.316234,0,0,100,-0.129006,-0.019859,0.306633,-0.023772,0.005397,0.537570,-0.000000,-0.000000,0.000000,-0.006392,0.001065,0.006392
1779593375.134245,-0.129007,-0.019864,0.306632,-0.023767,0.005401,0.537596,-0.000000,-0.000000,0.000000,0.000000,0.316233,0,0,100,-0.129006,-0.019859,0.306633,-0.023772,0.005397,0.537570,-0.000000,-0.000000,0.000000,-0.006392,0.001065,0.006392
1779593375.138300,-0.129005,-0.019870,0.306632,-0.023763,0.005402,0.537604,-0.000000,-0.000000,0.000000,0.000000,0.316233,0,0,100,-0.129007,-0.019864,0.306632,-0.023767,0.005401,0.537596,-0.000000,-0.000000,0.000000,-0.013848,0.001065,0.000000
1779593375.140337,-0.129011,-0.019875,0.306632,-0.023752,0.005389,0.537590,-0.000000,-0.000000,0.000000,-0.009587,0.316240,0,0,100,-0.129011,-0.019875,0.306632,-0.023752,0.005389,0.537590,-0.000000,-0.000000,0.000000,-0.005326,-0.008522,-0.009587
1779593375.144310,-0.129009,-0.019872,0.306632,-0.023740,0.005414,0.537609,0.000000,-0.000000,0.000000,0.006392,0.316234,0,0,100,-0.129011,-0.019875,0.306632,-0.023752,0.005389,0.537590,-0.000000,-0.000000,0.000000,-0.005326,-0.008522,-0.009587
1779593375.144310,-0.129009,-0.019872,0.306632,-0.023740,0.005414,0.537609,0.000000,-0.000000,0.000000,0.006392,0.316234,0,0,100,-0.129009,-0.019872,0.306632,-0.023740,0.005414,0.537609,0.000000,-0.000000,0.000000,-0.007457,0.018109,0.006392
1779593375.158226,-0.129012,-0.019879,0.306632,-0.023720,0.005386,0.537720,-0.000000,-0.000000,-0.000000,0.003196,0.316233,0,0,100,-0.129009,-0.019872,0.306632,-0.023740,0.005414,0.537609,0.000000,-0.000000,0.000000,-0.007457,0.018109,0.006392
1779593375.160236,-0.129009,-0.019873,0.306632,-0.023710,0.005387,0.537726,0.000000,0.000000,0.000000,0.004261,0.316236,0,0,100,-0.129012,-0.019879,0.306632,-0.023720,0.005386,0.537720,-0.000000,-0.000000,-0.000000,-0.009587,-0.008522,0.003196
1779593375.164147,-0.129008,-0.019867,0.306632,-0.023734,0.005404,0.537757,0.000000,0.000000,0.000000,0.009587,0.316234,0,0,100,-0.129012,-0.019879,0.306632,-0.023720,0.005386,0.537720,-0.000000,-0.000000,-0.000000,-0.009587,-0.008522,0.003196
1779593375.168434,-0.129012,-0.019869,0.306633,-0.023748,0.005393,0.537766,-0.000000,-0.000000,0.000000,0.003196,0.316238,0,0,100,-0.129008,-0.019867,0.306632,-0.023734,0.005404,0.537758,0.000000,0.000000,0.000000,-0.011718,-0.002131,0.009587
1779593375.170188,-0.129012,-0.019869,0.306633,-0.023748,0.005393,0.537766,-0.000000,-0.000000,0.000000,0.003196,0.316238,0,0,100,-0.129008,-0.019867,0.306632,-0.023734,0.005404,0.537758,0.000000,0.000000,0.000000,-0.011718,-0.002131,0.009587
1779593375.174251,-0.129007,-0.019866,0.306633,-0.023741,0.005425,0.537763,0.000000,-0.000000,0.000000,-0.003196,0.316235,0,0,100,-0.129012,-0.019869,0.306633,-0.023748,0.005393,0.537766,-0.000000,-0.000000,0.000000,-0.022371,0.002131,0.003196
1779593375.178248,-0.129004,-0.019869,0.306633,-0.023713,0.005426,0.537744,-0.000000,-0.000000,0.000000,-0.002131,0.316233,0,0,100,-0.129012,-0.019869,0.306633,-0.023748,0.005393,0.537766,-0.000000,-0.000000,0.000000,-0.022371,0.002131,0.003196
1779593375.180254,-0.128996,-0.019868,0.306633,-0.023702,0.005424,0.537739,0.000000,-0.000000,0.000000,-0.005326,0.316236,0,0,100,-0.129004,-0.019869,0.306633,-0.023713,0.005426,0.537744,-0.000000,-0.000000,0.000000,0.004261,-0.005326,-0.002131
1779593375.184247,-0.128998,-0.019874,0.306633,-0.023709,0.005427,0.537722,-0.000000,-0.000000,0.000000,0.000000,0.316233,0,0,100,-0.129004,-0.019869,0.306633,-0.023713,0.005426,0.537744,-0.000000,-0.000000,0.000000,0.004261,-0.005326,-0.002131
1779593375.188251,-0.129003,-0.019866,0.306633,-0.023725,0.005405,0.537695,-0.000000,-0.000000,0.000000,-0.005326,0.316231,0,0,100,-0.128998,-0.019874,0.306633,-0.023709,0.005427,0.537722,-0.000000,-0.000000,0.000000,-0.009587,-0.003196,0.000000
1779593375.190251,-0.129010,-0.019868,0.306633,-0.023731,0.005396,0.537694,-0.000000,-0.000000,0.000000,0.001065,0.316235,0,0,100,-0.128998,-0.019874,0.306633,-0.023709,0.005427,0.537722,-0.000000,-0.000000,0.000000,-0.009587,-0.003196,0.000000
1779593375.194252,-0.128998,-0.019862,0.306633,-0.023737,0.005408,0.537643,0.000000,-0.000000,0.000000,-0.009587,0.316236,0,0,100,-0.129010,-0.019868,0.306633,-0.023731,0.005396,0.537694,-0.000000,-0.000000,0.000000,-0.005326,-0.006392,0.001065
1779593375.198327,-0.128997,-0.019865,0.306633,-0.023725,0.005396,0.537612,-0.000000,-0.000000,0.000000,0.004261,0.316238,0,0,100,-0.129010,-0.019868,0.306633,-0.023731,0.005396,0.537694,-0.000000,-0.000000,0.000000,-0.005326,-0.006392,0.001065
1779593375.200297,-0.129001,-0.019864,0.306633,-0.023735,0.005415,0.537600,-0.000000,-0.000000,0.000000,-0.008522,0.316238,0,0,100,-0.128997,-0.019865,0.306633,-0.023725,0.005396,0.537612,-0.000000,-0.000000,0.000000,-0.006392,-0.008522,0.004261
1779593375.204333,-0.128989,-0.019865,0.306633,-0.023719,0.005437,0.537565,0.000000,-0.000000,0.000000,-0.014914,0.316241,0,0,100,-0.128997,-0.019865,0.306633,-0.023725,0.005396,0.537612,-0.000000,-0.000000,0.000000,-0.006392,-0.008522,0.004261
1779593375.208236,-0.128989,-0.019870,0.306633,-0.023712,0.005415,0.537534,-0.000000,-0.000000,0.000000,0.001065,0.316238,0,0,100,-0.128989,-0.019865,0.306633,-0.023719,0.005437,0.537566,0.000000,-0.000000,0.000000,-0.009587,0.001065,-0.014914
1779593375.210281,-0.128982,-0.019865,0.306633,-0.023694,0.005429,0.537525,0.000000,-0.000000,0.000000,-0.004261,0.316239,0,0,100,-0.128989,-0.019865,0.306633,-0.023719,0.005437,0.537566,0.000000,-0.000000,0.000000,-0.009587,0.001065,-0.014914
1779593375.210281,-0.128982,-0.019865,0.306633,-0.023694,0.005429,0.537525,0.000000,-0.000000,0.000000,-0.004261,0.316239,0,0,100,-0.128982,-0.019865,0.306633,-0.023694,0.005429,0.537525,0.000000,-0.000000,0.000000,-0.005326,0.011718,-0.004261
1779593375.218261,-0.128983,-0.019866,0.306633,-0.023728,0.005441,0.537513,-0.000000,-0.000000,0.000000,-0.002131,0.316234,0,0,100,-0.128982,-0.019865,0.306633,-0.023694,0.005429,0.537525,0.000000,-0.000000,0.000000,-0.005326,0.011718,-0.004261
1779593375.220264,-0.128980,-0.019860,0.306633,-0.023735,0.005445,0.537517,0.000000,0.000000,0.000000,0.006392,0.316239,0,0,100,-0.128983,-0.019866,0.306633,-0.023728,0.005441,0.537513,-0.000000,-0.000000,0.000000,-0.014914,0.001065,-0.002131
1779593375.224177,-0.128994,-0.019859,0.306633,-0.023728,0.005423,0.537516,-0.000000,0.000000,0.000000,-0.001065,0.316232,0,0,100,-0.128983,-0.019866,0.306633,-0.023728,0.005441,0.537513,-0.000000,-0.000000,0.000000,-0.014914,0.001065,-0.002131
1779593375.228233,-0.128988,-0.019854,0.306633,-0.023756,0.005444,0.537560,0.000000,0.000000,-0.000000,0.009587,0.316236,0,0,100,-0.128994,-0.019859,0.306633,-0.023728,0.005423,0.537517,-0.000000,0.000000,0.000000,-0.009587,-0.006392,-0.001065
1779593375.230235,-0.128999,-0.019856,0.306633,-0.023770,0.005428,0.537570,-0.000000,0.000000,-0.000000,0.008522,0.316236,0,0,100,-0.128994,-0.019859,0.306633,-0.023728,0.005423,0.537517,-0.000000,0.000000,0.000000,-0.009587,-0.006392,-0.001065
1779593375.234268,-0.128996,-0.019853,0.306633,-0.023767,0.005431,0.537592,0.000000,0.000000,-0.000000,0.015979,0.316234,0,0,100,-0.128999,-0.019856,0.306633,-0.023770,0.005428,0.537570,-0.000000,0.000000,-0.000000,-0.022371,-0.006392,0.008522
1779593375.238297,-0.128999,-0.019861,0.306633,-0.023748,0.005414,0.537629,-0.000000,-0.000000,0.000000,0.007457,0.316233,0,0,100,-0.128999,-0.019856,0.306633,-0.023770,0.005428,0.537570,-0.000000,0.000000,-0.000000,-0.022371,-0.006392,0.008522
1779593375.240332,-0.129002,-0.019870,0.306633,-0.023742,0.005419,0.537631,-0.000000,-0.000000,0.000000,-0.003196,0.316236,0,0,100,-0.128999,-0.019861,0.306633,-0.023748,0.005414,0.537629,-0.000000,-0.000000,0.000000,-0.019175,0.002131,0.007457
1779593375.244328,-0.128998,-0.019866,0.306633,-0.023726,0.005417,0.537686,0.000000,-0.000000,0.000000,0.012783,0.316234,0,0,100,-0.128999,-0.019861,0.306633,-0.023748,0.005414,0.537629,-0.000000,-0.000000,0.000000,-0.019175,0.002131,0.007457
1779593375.248248,-0.129001,-0.019870,0.306633,-0.023720,0.005394,0.537725,-0.000000,-0.000000,0.000000,0.005326,0.316236,0,0,100,-0.128998,-0.019866,0.306633,-0.023726,0.005417,0.537686,0.000000,-0.000000,0.000000,-0.011718,-0.005326,0.012783
1779593375.250244,-0.129013,-0.019875,0.306633,-0.023732,0.005385,0.537750,-0.000000,-0.000000,0.000000,0.012783,0.316236,0,0,100,-0.128998,-0.019866,0.306633,-0.023726,0.005417,0.537686,0.000000,-0.000000,0.000000,-0.011718,-0.005326,0.012783
1779593375.254251,-0.129007,-0.019858,0.306633,-0.023772,0.005411,0.537759,0.000000,0.000000,0.000000,0.008522,0.316233,0,0,100,-0.129013,-0.019875,0.306633,-0.023732,0.005385,0.537750,-0.000000,-0.000000,0.000000,-0.012783,-0.004261,0.012783
1779593375.258292,-0.129016,-0.019853,0.306633,-0.023790,0.005411,0.537779,-0.000000,-0.000000,0.000000,-0.002131,0.316232,0,0,100,-0.129013,-0.019875,0.306633,-0.023732,0.005385,0.537750,-0.000000,-0.000000,0.000000,-0.012783,-0.004261,0.012783
1779593375.260327,-0.129010,-0.019854,0.306633,-0.023780,0.005410,0.537775,0.000000,-0.000000,0.000000,-0.003196,0.316238,0,0,100,-0.129016,-0.019853,0.306633,-0.023790,0.005411,0.537779,-0.000000,-0.000000,0.000000,-0.012783,-0.010653,-0.002131
1779593375.264338,-0.129010,-0.019856,0.306633,-0.023789,0.005412,0.537778,-0.000000,-0.000000,0.000000,-0.003196,0.316236,0,0,100,-0.129016,-0.019853,0.306633,-0.023790,0.005411,0.537779,-0.000000,-0.000000,0.000000,-0.012783,-0.010653,-0.002131
1779593375.268281,-0.129010,-0.019862,0.306633,-0.023772,0.005400,0.537762,-0.000000,-0.000000,0.000000,-0.004261,0.316238,0,0,100,-0.129010,-0.019856,0.306633,-0.023789,0.005412,0.537778,-0.000000,-0.000000,0.000000,-0.003196,-0.005326,-0.003196
1779593375.270249,-0.129003,-0.019857,0.306633,-0.023780,0.005417,0.537749,0.000000,-0.000000,0.000000,-0.007457,0.316234,0,0,100,-0.129003,-0.019857,0.306633,-0.023780,0.005417,0.537749,0.000000,-0.000000,0.000000,-0.017044,0.006392,-0.007457
1779593375.274262,-0.128996,-0.019861,0.306633,-0.023750,0.005431,0.537707,0.000000,-0.000000,-0.000000,-0.003196,0.316234,0,0,100,-0.129003,-0.019857,0.306633,-0.023780,0.005417,0.537749,0.000000,-0.000000,0.000000,-0.017044,0.006392,-0.007457
1779593375.278264,-0.128997,-0.019855,0.306632,-0.023755,0.005436,0.537666,-0.000000,0.000000,-0.000000,-0.011718,0.316232,0,0,100,-0.129003,-0.019857,0.306633,-0.023780,0.005417,0.537749,0.000000,-0.000000,0.000000,-0.017044,0.006392,-0.007457
1779593375.280277,-0.128999,-0.019856,0.306633,-0.023763,0.005443,0.537657,-0.000000,0.000000,-0.000000,-0.003196,0.316239,0,0,100,-0.128997,-0.019855,0.306632,-0.023755,0.005436,0.537666,-0.000000,0.000000,-0.000000,-0.013848,-0.006392,-0.011718
1779593375.284254,-0.128994,-0.019849,0.306633,-0.023779,0.005451,0.537630,0.000000,0.000000,-0.000000,-0.007457,0.316236,0,0,100,-0.128997,-0.019855,0.306632,-0.023755,0.005436,0.537666,-0.000000,0.000000,-0.000000,-0.013848,-0.006392,-0.011718
1779593375.288260,-0.128994,-0.019841,0.306633,-0.023789,0.005461,0.537590,0.000000,0.000000,0.000000,-0.004261,0.316234,0,0,100,-0.128994,-0.019849,0.306633,-0.023779,0.005451,0.537630,0.000000,0.000000,-0.000000,-0.012783,0.006392,-0.007457
1779593375.290266,-0.128999,-0.019844,0.306633,-0.023797,0.005462,0.537588,-0.000000,0.000000,-0.000000,-0.001065,0.316236,0,0,100,-0.128994,-0.019849,0.306633,-0.023779,0.005451,0.537630,0.000000,0.000000,-0.000000,-0.012783,0.006392,-0.007457
1779593375.294201,-0.128994,-0.019842,0.306633,-0.023792,0.005450,0.537560,0.000000,-0.000000,-0.000000,-0.002131,0.316234,0,0,100,-0.128999,-0.019844,0.306633,-0.023797,0.005462,0.537588,-0.000000,0.000000,-0.000000,-0.017044,-0.003196,-0.001065
1779593375.298159,-0.128998,-0.019845,0.306632,-0.023781,0.005456,0.537531,-0.000000,0.000000,-0.000000,-0.015979,0.316236,0,0,100,-0.128999,-0.019844,0.306633,-0.023797,0.005462,0.537588,-0.000000,0.000000,-0.000000,-0.017044,-0.003196,-0.001065
1779593375.300164,-0.128992,-0.019839,0.306632,-0.023798,0.005467,0.537511,0.000000,0.000000,-0.000000,-0.009587,0.316236,0,0,100,-0.128998,-0.019845,0.306632,-0.023781,0.005456,0.537531,-0.000000,0.000000,-0.000000,0.009587,-0.013848,-0.015979
1779593375.304256,-0.128997,-0.019845,0.306632,-0.023791,0.005463,0.537472,-0.000000,0.000000,-0.000000,-0.001065,0.316232,0,0,100,-0.128998,-0.019845,0.306632,-0.023781,0.005456,0.537531,-0.000000,0.000000,-0.000000,0.009587,-0.013848,-0.015979
1779593375.308333,-0.128998,-0.019841,0.306632,-0.023793,0.005457,0.537457,0.000000,0.000000,-0.000000,-0.001065,0.316234,0,0,100,-0.128997,-0.019845,0.306632,-0.023791,0.005463,0.537472,-0.000000,0.000000,-0.000000,-0.019175,0.000000,-0.001065
1779593375.310292,-0.128999,-0.019841,0.306632,-0.023803,0.005455,0.537467,0.000000,0.000000,-0.000000,0.004261,0.316234,0,0,100,-0.128997,-0.019845,0.306632,-0.023791,0.005463,0.537472,-0.000000,0.000000,-0.000000,-0.019175,0.000000,-0.001065
1779593375.314317,-0.129001,-0.019846,0.306632,-0.023800,0.005439,0.537453,0.000000,0.000000,-0.000000,-0.004261,0.316232,0,0,100,-0.128999,-0.019841,0.306632,-0.023803,0.005455,0.537467,0.000000,0.000000,-0.000000,-0.019175,-0.005326,0.004261
1779593375.318345,-0.128994,-0.019838,0.306632,-0.023805,0.005464,0.537465,0.000000,0.000000,-0.000000,0.013848,0.316232,0,0,100,-0.128999,-0.019841,0.306632,-0.023803,0.005455,0.537467,0.000000,0.000000,-0.000000,-0.019175,-0.005326,0.004261
1779593375.320301,-0.128997,-0.019845,0.306632,-0.023805,0.005458,0.537460,-0.000000,0.000000,-0.000000,-0.007457,0.316235,0,0,100,-0.128994,-0.019838,0.306632,-0.023805,0.005464,0.537465,0.000000,0.000000,-0.000000,-0.019175,0.008522,0.013848
1779593375.324293,-0.129003,-0.019845,0.306632,-0.023798,0.005445,0.537481,0.000000,0.000000,-0.000000,0.013848,0.316231,0,0,100,-0.128994,-0.019838,0.306632,-0.023805,0.005464,0.537465,0.000000,0.000000,-0.000000,-0.019175,0.008522,0.013848
1779593375.328314,-0.128997,-0.019829,0.306632,-0.023818,0.005479,0.537529,0.000000,0.000000,-0.000000,0.012783,0.316232,0,0,100,-0.129003,-0.019845,0.306632,-0.023798,0.005445,0.537481,0.000000,0.000000,-0.000000,-0.005326,-0.008522,0.013848
1779593375.330244,-0.128999,-0.019838,0.306632,-0.023811,0.005466,0.537539,-0.000000,0.000000,-0.000000,0.007457,0.316237,0,0,100,-0.129003,-0.019845,0.306632,-0.023798,0.005445,0.537481,0.000000,0.000000,-0.000000,-0.005326,-0.008522,0.013848
1779593375.334248,-0.129001,-0.019834,0.306632,-0.023811,0.005467,0.537569,0.000000,0.000000,-0.000000,0.015979,0.316232,0,0,100,-0.128999,-0.019838,0.306632,-0.023811,0.005466,0.537539,-0.000000,0.000000,-0.000000,-0.011718,-0.013848,0.007457
1779593375.338249,-0.129001,-0.019839,0.306632,-0.023791,0.005463,0.537600,0.000000,0.000000,-0.000000,0.013848,0.316234,0,0,100,-0.128999,-0.019838,0.306632,-0.023811,0.005466,0.537539,-0.000000,0.000000,-0.000000,-0.011718,-0.013848,0.007457
1779593375.340250,-0.129000,-0.019837,0.306632,-0.023810,0.005478,0.537627,0.000000,0.000000,-0.000000,0.006392,0.316235,0,0,100,-0.129001,-0.019839,0.306632,-0.023791,0.005463,0.537600,0.000000,0.000000,-0.000000,-0.009587,0.003196,0.013848
1779593375.344278,-0.129002,-0.019837,0.306632,-0.023820,0.005475,0.537642,0.000000,-0.000000,-0.000000,0.006392,0.316233,0,0,100,-0.129001,-0.019839,0.306632,-0.023791,0.005463,0.537600,0.000000,0.000000,-0.000000,-0.009587,0.003196,0.013848
1779593375.346278,-0.129000,-0.019836,0.306632,-0.023812,0.005472,0.537644,0.000000,0.000000,-0.000000,0.001065,0.316230,0,0,100,-0.129002,-0.019837,0.306632,-0.023820,0.005475,0.537642,0.000000,-0.000000,-0.000000,-0.011718,0.005326,0.006392
1779593375.350238,-0.129010,-0.019829,0.306632,-0.023842,0.005475,0.537646,0.000000,0.000000,-0.000000,0.009587,0.316231,0,0,100,-0.129002,-0.019837,0.306632,-0.023820,0.005475,0.537642,0.000000,-0.000000,-0.000000,-0.011718,0.005326,0.006392
1779593375.354226,-0.129011,-0.019835,0.306632,-0.023835,0.005458,0.537652,-0.000000,0.000000,-0.000000,0.012783,0.316236,0,0,100,-0.129010,-0.019829,0.306632,-0.023842,0.005475,0.537646,0.000000,0.000000,-0.000000,-0.014914,0.002131,0.009587
1779593375.358227,-0.129011,-0.019841,0.306632,-0.023824,0.005434,0.537654,0.000000,0.000000,-0.000000,-0.005326,0.316229,0,0,100,-0.129010,-0.019829,0.306632,-0.023842,0.005475,0.537646,0.000000,0.000000,-0.000000,-0.014914,0.002131,0.009587
1779593375.360249,-0.129007,-0.019846,0.306632,-0.023810,0.005448,0.537658,0.000000,0.000000,-0.000000,0.003196,0.316236,0,0,100,-0.129011,-0.019841,0.306632,-0.023824,0.005434,0.537654,0.000000,0.000000,-0.000000,-0.009587,-0.014914,-0.005326
1779593375.364250,-0.129007,-0.019840,0.306632,-0.023796,0.005466,0.537624,0.000000,0.000000,-0.000000,0.001065,0.316236,0,0,100,-0.129007,-0.019840,0.306632,-0.023796,0.005466,0.537624,0.000000,0.000000,-0.000000,-0.006392,0.002131,0.001065
1779593375.368248,-0.129005,-0.019841,0.306632,-0.023792,0.005463,0.537595,0.000000,0.000000,-0.000000,-0.018109,0.316229,0,0,100,-0.129007,-0.019840,0.306632,-0.023796,0.005466,0.537624,0.000000,0.000000,-0.000000,-0.006392,0.002131,0.001065
1779593375.370298,-0.129002,-0.019841,0.306632,-0.023810,0.005464,0.537575,0.000000,0.000000,-0.000000,-0.010653,0.316233,0,0,100,-0.129007,-0.019840,0.306632,-0.023796,0.005466,0.537624,0.000000,0.000000,-0.000000,-0.006392,0.002131,0.001065
1779593375.374294,-0.129008,-0.019838,0.306632,-0.023812,0.005469,0.537542,-0.000000,0.000000,-0.000000,-0.003196,0.316231,0,0,100,-0.129002,-0.019841,0.306632,-0.023810,0.005464,0.537575,0.000000,0.000000,-0.000000,-0.014914,0.005326,-0.010653
1779593375.378353,-0.128997,-0.019834,0.306632,-0.023826,0.005482,0.537506,0.000000,0.000000,-0.000000,-0.009587,0.316236,0,0,100,-0.129002,-0.019841,0.306632,-0.023810,0.005464,0.537575,0.000000,0.000000,-0.000000,-0.014914,0.005326,-0.010653
1779593375.380223,-0.129000,-0.019836,0.306632,-0.023820,0.005482,0.537497,-0.000000,0.000000,-0.000000,-0.008522,0.316233,0,0,100,-0.128997,-0.019834,0.306632,-0.023826,0.005482,0.537506,0.000000,0.000000,-0.000000,-0.009587,-0.001065,-0.009587
1779593375.384240,-0.129000,-0.019831,0.306632,-0.023840,0.005489,0.537464,-0.000000,0.000000,-0.000000,-0.012783,0.316231,0,0,100,-0.128997,-0.019834,0.306632,-0.023826,0.005482,0.537506,0.000000,0.000000,-0.000000,-0.009587,-0.001065,-0.009587
1779593375.388228,-0.128999,-0.019840,0.306632,-0.023814,0.005478,0.537448,0.000000,-0.000000,-0.000000,0.007457,0.316237,0,0,100,-0.129000,-0.019831,0.306632,-0.023840,0.005489,0.537464,-0.000000,0.000000,-0.000000,-0.005326,-0.001065,-0.012783
1779593375.390252,-0.128998,-0.019844,0.306632,-0.023786,0.005463,0.537445,-0.000000,-0.000000,0.000000,-0.003196,0.316233,0,0,100,-0.129000,-0.019831,0.306632,-0.023840,0.005489,0.537464,-0.000000,0.000000,-0.000000,-0.005326,-0.001065,-0.012783
1779593375.394254,-0.128995,-0.019842,0.306632,-0.023795,0.005475,0.537421,0.000000,0.000000,0.000000,-0.010653,0.316235,0,0,100,-0.128998,-0.019844,0.306632,-0.023786,0.005463,0.537445,-0.000000,-0.000000,0.000000,0.007457,-0.017044,-0.003196
1779593375.398250,-0.128983,-0.019842,0.306632,-0.023788,0.005461,0.537404,0.000000,0.000000,-0.000000,0.002131,0.316234,0,0,100,-0.128998,-0.019844,0.306632,-0.023786,0.005463,0.537445,-0.000000,-0.000000,0.000000,0.007457,-0.017044,-0.003196
1779593375.400247,-0.128993,-0.019843,0.306632,-0.023779,0.005459,0.537386,-0.000000,0.000000,-0.000000,0.001065,0.316232,0,0,100,-0.128983,-0.019842,0.306632,-0.023788,0.005461,0.537405,0.000000,0.000000,-0.000000,-0.020240,0.003196,0.002131
1779593375.404251,-0.128991,-0.019842,0.306632,-0.023779,0.005464,0.537399,0.000000,0.000000,-0.000000,0.010653,0.316234,0,0,100,-0.128983,-0.019842,0.306632,-0.023788,0.005461,0.537405,0.000000,0.000000,-0.000000,-0.020240,0.003196,0.002131
1779593375.408249,-0.128989,-0.019845,0.306632,-0.023791,0.005455,0.537408,0.000000,0.000000,-0.000000,-0.001065,0.316236,0,0,100,-0.128991,-0.019842,0.306632,-0.023779,0.005464,0.537399,0.000000,0.000000,-0.000000,-0.019175,0.003196,0.010653
1779593375.411000,-0.128987,-0.019844,0.306632,-0.023782,0.005481,0.537428,0.000000,0.000000,-0.000000,0.010653,0.316234,0,0,100,-0.128991,-0.019842,0.306632,-0.023779,0.005464,0.537399,0.000000,0.000000,-0.000000,-0.019175,0.003196,0.010653
1779593375.414301,-0.128995,-0.019841,0.306632,-0.023792,0.005474,0.537440,-0.000000,0.000000,-0.000000,0.014914,0.316229,0,0,100,-0.128987,-0.019844,0.306632,-0.023782,0.005481,0.537428,0.000000,0.000000,-0.000000,-0.007457,-0.001065,0.010653
1779593375.418312,-0.128990,-0.019850,0.306632,-0.023779,0.005471,0.537482,-0.000000,0.000000,-0.000000,0.011718,0.316235,0,0,100,-0.128990,-0.019850,0.306632,-0.023779,0.005471,0.537483,-0.000000,0.000000,-0.000000,-0.010653,-0.017044,0.011718
1779593375.420524,-0.128989,-0.019846,0.306632,-0.023790,0.005477,0.537494,0.000000,0.000000,-0.000000,0.001065,0.316233,0,0,100,-0.128990,-0.019850,0.306632,-0.023779,0.005471,0.537483,-0.000000,0.000000,-0.000000,-0.010653,-0.017044,0.011718
